{
  "casualties": [
    {
      "lat": 30.259632,
      "lon": 50.490649,
      "level": 4,
      "date": "31/03/2022",
      "title": "Civilian casualties in Irpin'"
    },
    {
      "lat": 38.373479,
      "lon": 49.038795,
      "level": 4,
      "date": "29/03/2022",
      "title": "Bodies of two civillians on bicycles"
    },
    {
      "lat": 38.185611,
      "lon": 47.925436,
      "level": 6,
      "date": "27/03/2022",
      "title": "One deceased civilian on the street."
    },
    {
      "lat": 36.315684,
      "lon": 50.006718,
      "level": 2,
      "date": "24/03/2022",
      "title": "Image 1: Casualty at the humanitarian aid station in Kharkiv, near which people were standing, struck by rockets of the Hurricane system with cluster elements."
    },
    {
      "lat": 36.31577,
      "lon": 50.006652,
      "level": 6,
      "date": "24/03/2022",
      "title": "Civilian casualty after hit on the queue that stood for humanitarian aid"
    },
    {
      "lat": 37.523999,
      "lon": 47.100092,
      "level": 4,
      "date": "24/03/2022",
      "title": "Body visable in the street"
    },
    {
      "lat": 36.315737,
      "lon": 50.006826,
      "level": 3,
      "date": "24/03/2022",
      "title": "6 killed, 15 injured by Russian long range weapons after queing to receive humanitarian aid"
    },
    {
      "lat": 36.315684,
      "lon": 50.006718,
      "level": 4,
      "date": "24/03/2022",
      "title": "Outcome of missile attack on humanitarian aid center."
    },
    {
      "lat": 37.524016,
      "lon": 47.101208,
      "level": 6,
      "date": "23/03/2022",
      "title": "Dead civilian and destruction in Mariupol"
    },
    {
      "lat": 32.61437,
      "lon": 46.640177,
      "level": 4,
      "date": "21/03/2022",
      "title": "Bleeding protester shot by Russian troops"
    },
    {
      "lat": 32.61437,
      "lon": 46.640177,
      "level": 4,
      "date": "21/03/2022",
      "title": "Bleeding protester shot by Russian troops"
    },
    {
      "lat": 32.029354,
      "lon": 46.888671,
      "level": 3,
      "date": "21/03/2022",
      "title": "Civilian casualties after strike near gas station"
    },
    {
      "lat": 32.614315,
      "lon": 46.64015,
      "level": 6,
      "date": "21/03/2022",
      "title": "Russian forces opening fire on demonstrators - one protestor hit"
    },
    {
      "lat": 31.326948,
      "lon": 51.519377,
      "level": 4,
      "date": "16/03/2022",
      "title": "10 people reportedly killed while waiting for food."
    },
    {
      "lat": 31.326935,
      "lon": 51.519494,
      "level": 5,
      "date": "16/03/2022",
      "title": "Blurred bodies seen in front of a building"
    },
    {
      "lat": 37.52427,
      "lon": 47.10305,
      "level": 4,
      "date": "16/03/2022",
      "title": "Footage showing bombing of what appears to be a person"
    },
    {
      "lat": 35.334019,
      "lon": 47.589785,
      "level": 6,
      "date": "16/03/2022",
      "title": "Alleged artillery fire on civilian convoy - 5 wounded including one child"
    },
    {
      "lat": 31.32656,
      "lon": 51.51966,
      "level": 6,
      "date": "16/03/2022",
      "title": "Deceased civilians (bodies censored) in a supermarket queue"
    },
    {
      "lat": 36.340281,
      "lon": 49.9904,
      "level": 6,
      "date": "16/03/2022",
      "title": "Car hit in Kharkiv"
    },
    {
      "lat": 37.804591,
      "lon": 48.008297,
      "level": 6,
      "date": "14/03/2022",
      "title": "A civilian is hit with a fragment from a shot down Tochka missile"
    },
    {
      "lat": 30.263824,
      "lon": 50.54065,
      "level": 6,
      "date": "14/03/2022",
      "title": "What appears to be a body in a residential area. No information about how they died."
    },
    {
      "lat": 37.799056,
      "lon": 48.006255,
      "level": 2,
      "date": "14/03/2022",
      "title": "Bodies lie in the street following the downing of a Tochka missile in Donestk",
      "media_url": "https://twitter.com/Mastersepar/status/1503329664374394884"
    },
    {
      "lat": 37.798722,
      "lon": 48.007181,
      "level": 5,
      "date": "14/03/2022",
      "title": "Bodies lie in the street following the downing of a Tochka missile in Donestk"
    },
    {
      "lat": 37.798722,
      "lon": 48.007181,
      "level": 5,
      "date": "14/03/2022",
      "title": "Bodies lie in the street following the downing of a Tochka missile in Donestk"
    },
    {
      "lat": 37.798722,
      "lon": 48.007181,
      "level": 5,
      "date": "14/03/2022",
      "title": "Bodies lie in the street following the downing of a Tochka missile in Donestk"
    },
    {
      "lat": 37.798809,
      "lon": 48.007381,
      "level": 5,
      "date": "14/03/2022",
      "title": "Bodies lie in the street following the downing of a Tochka missile in Donestk"
    },
    {
      "lat": 37.799,
      "lon": 48.006853,
      "level": 6,
      "date": "14/03/2022",
      "title": "Bodies in a bus following the downing of a Tochka missile in Donestk"
    },
    {
      "lat": 37.799086,
      "lon": 48.007189,
      "level": 6,
      "date": "14/03/2022",
      "title": "Image 3: The body of a civilian casualy is covered with a blanket"
    },
    {
      "lat": 37.798725,
      "lon": 48.007267,
      "level": 6,
      "date": "14/03/2022",
      "title": "Image 1: Two dead bodies lie on the street following a rocket attack"
    },
    {
      "lat": 37.798728,
      "lon": 48.007217,
      "level": 6,
      "date": "14/03/2022",
      "title": "HIGHLY GRAPHIC: Civilian casualties following the downing of a Tochka rocket in Donetsk"
    },
    {
      "lat": 37.798722,
      "lon": 48.007181,
      "level": 6,
      "date": "14/03/2022",
      "title": "An elderly man suffers from a panic-like attack seeing casualties after a rocket attack"
    },
    {
      "lat": 31.996908,
      "lon": 47.014791,
      "level": 6,
      "date": "13/03/2022",
      "title": "Body bags lie in a parking lot after an attack"
    },
    {
      "lat": 36.480897,
      "lon": 49.913989,
      "level": 4,
      "date": "09/03/2022",
      "title": "deceased civilians on the highway"
    },
    {
      "lat": 37.635385,
      "lon": 47.100408,
      "level": 6,
      "date": "09/03/2022",
      "title": "Deceased civilians in front of store"
    },
    {
      "lat": 37.533467,
      "lon": 47.09649,
      "level": 4,
      "date": "09/03/2022",
      "title": "Victims taken from hospital after strike"
    },
    {
      "lat": 36.825919,
      "lon": 47.700511,
      "level": 6,
      "date": "09/03/2022",
      "title": "Deceased next to military medical vehicle"
    },
    {
      "lat": 34.766843,
      "lon": 50.897525,
      "level": 6,
      "date": "08/03/2022",
      "title": "Images of bodies amongst rubble"
    },
    {
      "lat": 34.766843,
      "lon": 50.897525,
      "level": 6,
      "date": "08/03/2022",
      "title": "Damage of civilian infrastructure and multiple casualties visible."
    },
    {
      "lat": 30.14816,
      "lon": 50.44024,
      "level": 4,
      "date": "07/03/2022",
      "title": "Drone footage showing a civilian being shot by Russian soldiers"
    },
    {
      "lat": 30.260417,
      "lon": 50.490056,
      "level": 6,
      "date": "07/03/2022",
      "title": "dead civilians in Irpin after Russian attack"
    },
    {
      "lat": 34.767269,
      "lon": 50.897788,
      "level": 6,
      "date": "07/03/2022",
      "title": "Deceased children after strike"
    },
    {
      "lat": 34.76711,
      "lon": 50.897702,
      "level": 6,
      "date": "07/03/2022",
      "title": "Deceased children after strike"
    },
    {
      "lat": 36.256383,
      "lon": 50.089954,
      "level": 6,
      "date": "06/03/2022",
      "title": "Multiple civilian casualties in Kharkiv"
    },
    {
      "lat": 30.259736,
      "lon": 50.490076,
      "level": 6,
      "date": "06/03/2022",
      "title": "Three members of a family of four reportedly killed by strike in corridor being used by civilians. Crater visible in some videos.  (graphic warning: bodies)"
    },
    {
      "lat": 30.259736,
      "lon": 50.490076,
      "level": 6,
      "date": "06/03/2022",
      "title": "Three members of a family of four reportedly killed by strike in corridor being used by civilians. Crater visible in some videos.  (graphic warning: bodies)"
    },
    {
      "lat": 30.259736,
      "lon": 50.490076,
      "level": 6,
      "date": "06/03/2022",
      "title": "Three members of a family of four reportedly killed by strike in corridor being used by civilians. Crater visible in some videos.  (graphic warning: bodies)"
    },
    {
      "lat": 30.259736,
      "lon": 50.490076,
      "level": 6,
      "date": "06/03/2022",
      "title": "Three members of a family of four reportedly killed by strike in corridor being used by civilians. Crater visible in some videos.  (graphic warning: bodies)"
    },
    {
      "lat": 30.259736,
      "lon": 50.490076,
      "level": 6,
      "date": "06/03/2022",
      "title": "Three members of a family of four reportedly killed by strike in corridor being used by civilians. Crater visible in some videos.  (graphic warning: bodies)"
    },
    {
      "lat": 30.259736,
      "lon": 50.490076,
      "level": 6,
      "date": "06/03/2022",
      "title": "Three members of a family of four reportedly killed by strike in corridor being used by civilians. Crater visible in some videos.  (graphic warning: bodies)"
    },
    {
      "lat": 30.259736,
      "lon": 50.490076,
      "level": 6,
      "date": "06/03/2022",
      "title": "Three members of a family of four reportedly killed by strike in corridor being used by civilians. Crater visible in some videos.  (graphic warning: bodies)"
    },
    {
      "lat": 30.259736,
      "lon": 50.490076,
      "level": 6,
      "date": "06/03/2022",
      "title": "Three members of a family of four reportedly killed by strike in corridor being used by civilians. Crater visible in some videos.  (graphic warning: bodies)"
    },
    {
      "lat": 36.256018,
      "lon": 50.090004,
      "level": 6,
      "date": "06/03/2022",
      "title": "Strike on a line of civilians queueing outside a supermarket. Multiple small impacts indicate cluster munitions. (graphic: blood and bodies)"
    },
    {
      "lat": 36.256383,
      "lon": 50.089954,
      "level": 6,
      "date": "06/03/2022",
      "title": "GRAPHIC many civilian casualties in front of supermarket in residential area"
    },
    {
      "lat": 30.260298,
      "lon": 50.4901,
      "level": 4,
      "date": "06/03/2022",
      "title": "Civilian casualties after russian strike"
    },
    {
      "lat": 30.260298,
      "lon": 50.4901,
      "level": 6,
      "date": "06/03/2022",
      "title": "Civilian casualties after russian strike"
    },
    {
      "lat": 39.10567,
      "lon": 49.536386,
      "level": 4,
      "date": "05/03/2022",
      "title": "Soldiers appear to shoot a Ukrainian civilian in the leg at a protest"
    },
    {
      "lat": 39.10567,
      "lon": 49.536386,
      "level": 4,
      "date": "05/03/2022",
      "title": "Soldiers appear to shoot a Ukrainian civilian in the leg at a protest"
    },
    {
      "lat": 39.105542,
      "lon": 49.536353,
      "level": 4,
      "date": "05/03/2022",
      "title": "Civilian shot by Russian forces"
    },
    {
      "lat": 36.350872,
      "lon": 50.022035,
      "level": 6,
      "date": "04/03/2022",
      "title": "Civilian casualities after shelling in Heroiv Pratsi St, Kharkiv"
    },
    {
      "lat": 32.655611,
      "lon": 46.660893,
      "level": 6,
      "date": "02/03/2022",
      "title": "Dead body in a shelled damadged vehicle, Kherson license plate, strike hit building too"
    },
    {
      "lat": 30.454954,
      "lon": 50.472546,
      "level": 3,
      "date": "01/03/2022",
      "title": "Three civilians killed in strike near Kyiv TV tower",
      "media_url": "https://twitter.com/aldin_ww/status/1498719965033156616"
    },
    {
      "lat": 36.15618,
      "lon": 49.949881,
      "level": 6,
      "date": "01/03/2022",
      "title": "Widespread shelling damage kills civilians"
    },
    {
      "lat": 36.15618,
      "lon": 49.949881,
      "level": 6,
      "date": "01/03/2022",
      "title": "Widespread shelling damage kills civilians"
    },
    {
      "lat": 36.15618,
      "lon": 49.949881,
      "level": 6,
      "date": "01/03/2022",
      "title": "Widespread shelling damage kills civilians"
    },
    {
      "lat": 31.278308,
      "lon": 51.499945,
      "level": 6,
      "date": "01/03/2022",
      "title": "Multiple bodies resulting from bombing in Chernihiv."
    },
    {
      "lat": 32.572401,
      "lon": 46.658472,
      "level": 6,
      "date": "01/03/2022",
      "title": "Multiple bodies in a public area, near Park"
    },
    {
      "lat": 32.573143,
      "lon": 46.658952,
      "level": 6,
      "date": "01/03/2022",
      "title": "Dead civilians, dismembered or sections of bodies scattered in a park"
    },
    {
      "lat": 32.573143,
      "lon": 46.658952,
      "level": 6,
      "date": "01/03/2022",
      "title": "Dead civilians, dismembered or sections of bodies scattered in a park"
    },
    {
      "lat": 32.572401,
      "lon": 46.658472,
      "level": 6,
      "date": "01/03/2022",
      "title": "Civilian casualtys, dismembered or sections of bodies scattered in a park"
    },
    {
      "lat": 30.454973,
      "lon": 50.472542,
      "level": 6,
      "date": "01/03/2022",
      "title": "Casualties after missile strike"
    },
    {
      "lat": 30.454973,
      "lon": 50.472542,
      "level": 6,
      "date": "01/03/2022",
      "title": "Casualties after missile strike"
    },
    {
      "lat": 36.212535,
      "lon": 50.017816,
      "level": 6,
      "date": "28/02/2022",
      "title": "Bomb in front of store, injured person and foot seen near store"
    },
    {
      "lat": 36.212691,
      "lon": 50.01784,
      "level": 6,
      "date": "28/02/2022",
      "title": "Multiple images of munitions rockets. Image four is located image"
    },
    {
      "lat": 36.270448,
      "lon": 50.001833,
      "level": 6,
      "date": "28/02/2022",
      "title": "Car crash resulting in casualty after artillery fire"
    },
    {
      "lat": 29.796315,
      "lon": 50.46366,
      "level": 6,
      "date": "28/02/2022",
      "title": "Civilian casualty in car"
    },
    {
      "lat": 36.236884,
      "lon": 50.032896,
      "level": 6,
      "date": "28/02/2022",
      "title": "GRAPHIC - Bodies of civilians (3), killed by MLRS shelling in Kharkiv, Pavlove Pole district)"
    },
    {
      "lat": 29.796315,
      "lon": 50.46366,
      "level": 6,
      "date": "28/02/2022",
      "title": "Civilian car fired on by Russian BMP-2, two killed"
    },
    {
      "lat": 36.23743,
      "lon": 50.032714,
      "level": 6,
      "date": "28/02/2022",
      "title": "Civilian severely injurded in Kharkiv"
    },
    {
      "lat": 29.877105,
      "lon": 50.925932,
      "level": 6,
      "date": "27/02/2022",
      "title": "Civillians \u0026 dog shot in car"
    },
    {
      "lat": 29.877105,
      "lon": 50.925932,
      "level": 6,
      "date": "27/02/2022",
      "title": "Discovery of scene after father and dog killed by russian sniper"
    },
    {
      "lat": 29.877105,
      "lon": 50.925932,
      "level": 6,
      "date": "27/02/2022",
      "title": "Father and dog killed by russian sniper"
    },
    {
      "lat": 32.7168,
      "lon": 46.74256,
      "level": 4,
      "date": "26/02/2022",
      "title": "Marked civilian ambulance attacked; 2 fatalities, 1 injury",
      "media_url": "https://twitter.com/666_mancer/status/1497600148188319750"
    },
    {
      "lat": 32.7168,
      "lon": 46.74256,
      "level": 4,
      "date": "26/02/2022",
      "title": "Marked civilian ambulance attacked; 2 fatalities, 1 injury",
      "media_url": "https://twitter.com/KyivPost/status/1497592742788149252"
    },
    {
      "lat": 36.119724,
      "lon": 50.184706,
      "level": 6,
      "date": "26/02/2022",
      "title": "Dead civilian and abandoned Russian equipment"
    },
    {
      "lat": 37.697958,
      "lon": 47.18064,
      "level": 6,
      "date": "26/02/2022",
      "title": "Civilians killed in alledged MLRS strike, in Sartana, next to Mariupol"
    },
    {
      "lat": 37.698088,
      "lon": 47.180628,
      "level": 4,
      "date": "26/02/2022",
      "title": "Civilian casualties"
    },
    {
      "lat": 32.7168,
      "lon": 46.74256,
      "level": 4,
      "date": "26/02/2022",
      "title": "Marked civilian ambulance attacked; 2 fatalities, 1 injury",
      "media_url": "https://twitter.com/KyivIndependent/status/1497632990213648391"
    },
    {
      "lat": 34.8696,
      "lon": 50.3098,
      "level": 6,
      "date": "25/02/2022",
      "title": "Civilian casualties at kindergarten"
    },
    {
      "lat": 34.869819,
      "lon": 50.309797,
      "level": 2,
      "date": "25/02/2022",
      "title": "Alledged kindergarten hit by missile/artillery.",
      "media_url": "https://twitter.com/no_itsmyturn/status/1497184730395074562"
    },
    {
      "lat": 34.869819,
      "lon": 50.309797,
      "level": 6,
      "date": "25/02/2022",
      "title": "Alledged kindergarten hit by missile/artillery."
    },
    {
      "lat": 34.869819,
      "lon": 50.309797,
      "level": 6,
      "date": "25/02/2022",
      "title": "Alledged kindergarten hit by missile/artillery."
    },
    {
      "lat": 30.490349,
      "lon": 50.518814,
      "level": 4,
      "date": "25/02/2022",
      "title": "Tank runs over a civilian vehicle with the driver inside."
    },
    {
      "lat": 37.681608,
      "lon": 47.121018,
      "level": 6,
      "date": "24/02/2022",
      "title": "Civilian killed in explosion"
    },
    {
      "lat": 36.659778,
      "lon": 49.850806,
      "level": 4,
      "date": "24/02/2022",
      "title": "Civilian casualty, Chugiuv"
    },
    {
      "lat": 34.642861,
      "lon": 46.228083,
      "level": 6,
      "date": "24/02/2022",
      "title": "Child killed in explosion"
    },
    {
      "lat": 37.680973,
      "lon": 47.120915,
      "level": 6,
      "date": "24/02/2022",
      "title": "Civilian casualty"
    },
    {
      "lat": 30.218705,
      "lon": 48.748716,
      "level": 6,
      "date": "24/02/2022",
      "title": "Body covered by blanket in street where bombing was claimed to have happened"
    }
  ],
  "shelling": [
    {
      "lat": 38.545132,
      "lon": 48.576591,
      "level": 2,
      "date": "30/03/2022",
      "title": "Russian tanks firing from Luhansk Oblast",
      "media_url": "https://twitter.com/RALee85/status/1509207564659171341"
    },
    {
      "lat": 31.997388,
      "lon": 46.974896,
      "level": 2,
      "date": "29/03/2022",
      "title": "CCTV footage of missile strike on Mykolaiv Regional State Administration building"
    },
    {
      "lat": 31.272285,
      "lon": 51.4759,
      "level": 3,
      "date": "25/03/2022",
      "title": "Explosion in Chernihiv",
      "media_url": "https://twitter.com/aldin_ww/status/1507445746357915658"
    },
    {
      "lat": 30.31577,
      "lon": 50.51961,
      "level": 1,
      "date": "25/03/2022",
      "title": "Munitions in the sky",
      "media_url": "https://twitter.com/tinso_ww/status/1507416230071779331"
    },
    {
      "lat": 36.315664,
      "lon": 50.006851,
      "level": 3,
      "date": "24/03/2022",
      "title": "Ordenance hits a queue of people in Kharkiv"
    },
    {
      "lat": 36.315669,
      "lon": 50.006886,
      "level": 3,
      "date": "24/03/2022",
      "title": "Shelling of civilians in line for aid",
      "media_url": "https://twitter.com/ignis_fatum/status/1507080956636807168"
    },
    {
      "lat": 30.266554,
      "lon": 50.632139,
      "level": 2,
      "date": "23/03/2022",
      "title": "Tank fires at an unclear target"
    },
    {
      "lat": 30.46702,
      "lon": 50.500848,
      "level": 2,
      "date": "23/03/2022",
      "title": "drone footage showing targeting of Ukrainian military equipment",
      "media_url": "https://twitter.com/UAWeapons/status/1506580654741467138"
    },
    {
      "lat": 31.192993,
      "lon": 50.558832,
      "level": 1,
      "date": "23/03/2022",
      "title": "Ukrainian artillery attack on Russian positions",
      "media_url": "https://twitter.com/RedIntelPanda/status/1507000151835136005"
    },
    {
      "lat": 30.254326,
      "lon": 50.506478,
      "level": 1,
      "date": "22/03/2022",
      "title": "Russian Jets bombing field",
      "media_url": "https://twitter.com/YoshiYamamo_to/status/1506595567614504970"
    },
    {
      "lat": 37.66646,
      "lon": 47.126208,
      "level": 2,
      "date": "22/03/2022",
      "title": "Fighting/bombing of department of  mechanization"
    },
    {
      "lat": 30.019011,
      "lon": 50.42958,
      "level": 2,
      "date": "22/03/2022",
      "title": "Attacks on Russian military",
      "media_url": "https://twitter.com/Blue_Sauron/status/1506214070269140994"
    },
    {
      "lat": 37.60674,
      "lon": 47.10891,
      "level": 3,
      "date": "21/03/2022",
      "title": "Artillery Strike on industrial buildings in the Livoberezhnyi district",
      "media_url": "https://twitter.com/RALee85/status/1505996479734988805"
    },
    {
      "lat": 30.717397,
      "lon": 46.3593,
      "level": 2,
      "date": "21/03/2022",
      "title": "Explosion along Odessa coastline",
      "media_url": "https://twitter.com/EuromaidanPress/status/1505781709685633027"
    },
    {
      "lat": 36.284494,
      "lon": 50.045693,
      "level": 2,
      "date": "21/03/2022",
      "title": "Loud bang supposedly of shelling in Kharkiv near Sigma Software"
    },
    {
      "lat": 36.328219,
      "lon": 49.983112,
      "level": 2,
      "date": "20/03/2022",
      "title": "dashcam footage of shelling",
      "media_url": "https://twitter.com/no_itsmyturn/status/1505488383736532993"
    },
    {
      "lat": 30.417711,
      "lon": 50.502639,
      "level": 2,
      "date": "20/03/2022",
      "title": "Very large detonation in Kyiv, appearing to hit the Retroville shopping mall. CCTV videos show small flash before larger detonation."
    },
    {
      "lat": 30.417711,
      "lon": 50.502639,
      "level": 1,
      "date": "20/03/2022",
      "title": "Very large detonation in Kyiv, appearing to hit the Retroville shopping mall. CCTV videos show small flash before larger detonation.",
      "media_url": "https://twitter.com/Osinttechnical/status/1505666793834270721"
    },
    {
      "lat": 30.417711,
      "lon": 50.502639,
      "level": 1,
      "date": "20/03/2022",
      "title": "Very large detonation in Kyiv, appearing to hit the Retroville shopping mall. CCTV videos show small flash before larger detonation.",
      "media_url": "https://twitter.com/OAlexanderDK/status/1505676097136082948"
    },
    {
      "lat": 30.417711,
      "lon": 50.502639,
      "level": 1,
      "date": "20/03/2022",
      "title": "Very large detonation in Kyiv, appearing to hit the Retroville shopping mall. CCTV videos show small flash before larger detonation.",
      "media_url": "https://twitter.com/SMarr311/status/1505651869783408643"
    },
    {
      "lat": 37.231653,
      "lon": 49.13167,
      "level": 2,
      "date": "19/03/2022",
      "title": "Russian MOD video footage of bombing of underground armaments",
      "media_url": "https://twitter.com/islamicworldupd/status/1505121990952296452"
    },
    {
      "lat": 37.522417,
      "lon": 47.930228,
      "level": 2,
      "date": "19/03/2022",
      "title": "Russian forces showing strike on house",
      "media_url": "https://twitter.com/666_mancer/status/1505066240536195075"
    },
    {
      "lat": 31.29622,
      "lon": 51.46155,
      "level": 2,
      "date": "18/03/2022",
      "title": "image 4: Russian shelling landing in a field",
      "media_url": "https://twitter.com/Mike_Eckel/status/1504924831392968708/photo/4"
    },
    {
      "lat": 37.608113,
      "lon": 47.105087,
      "level": 2,
      "date": "18/03/2022",
      "title": "Shelling of Azovstal steel and iron work",
      "media_url": "https://twitter.com/poppoppopkt/status/1505970897492090886"
    },
    {
      "lat": 30.365568,
      "lon": 50.528611,
      "level": 2,
      "date": "18/03/2022",
      "title": "Strike in residential area"
    },
    {
      "lat": 37.591688,
      "lon": 48.732902,
      "level": 2,
      "date": "18/03/2022",
      "title": "Rocket hit with SBU building likely targeted, damaging surrounding houses"
    },
    {
      "lat": 37.588033,
      "lon": 48.735863,
      "level": 2,
      "date": "18/03/2022",
      "title": "CLAIM: Rocket hit with SBU building damaging surrounding houses"
    },
    {
      "lat": 30.771921,
      "lon": 46.446872,
      "level": 1,
      "date": "17/03/2022",
      "title": "Russian shelling of beach in Odessa",
      "media_url": "https://twitter.com/MarQs__/status/1504404116080152579"
    },
    {
      "lat": 32.536253,
      "lon": 46.67433,
      "level": 3,
      "date": "16/03/2022",
      "title": "During the shelling of the Kherson Int. Airport, also cemetry personell and hearses came under fire."
    },
    {
      "lat": 30.47352,
      "lon": 50.452513,
      "level": 2,
      "date": "16/03/2022",
      "title": "Strike on Kyiv",
      "media_url": "https://twitter.com/RALee85/status/1503987148118188035"
    },
    {
      "lat": 37.281739,
      "lon": 49.106362,
      "level": 2,
      "date": "16/03/2022",
      "title": "Shelling of military positions",
      "media_url": "https://twitter.com/a_vikulin/status/1504135200397307908"
    },
    {
      "lat": 30.475683,
      "lon": 50.453803,
      "level": 2,
      "date": "16/03/2022",
      "title": "Strikes In Kyiv",
      "media_url": "https://twitter.com/no_itsmyturn/status/1503975645998686212"
    },
    {
      "lat": 32.506839,
      "lon": 46.672634,
      "level": 1,
      "date": "16/03/2022",
      "title": "Kherson Airbase on fire after attack",
      "media_url": "https://twitter.com/Cen4infoRes/status/1504122987695456264"
    },
    {
      "lat": 37.573,
      "lon": 47.101,
      "level": 2,
      "date": "16/03/2022",
      "title": "Video published by Russian MoD of Orion-E UAV striking a target in Mariupol.",
      "media_url": "https://twitter.com/no_itsmyturn/status/1503967298985598978"
    },
    {
      "lat": 30.476241,
      "lon": 50.453979,
      "level": 3,
      "date": "15/03/2022",
      "title": "Explosion in residential area",
      "media_url": "https://twitter.com/no_itsmyturn/status/1503992619034198016"
    },
    {
      "lat": 32.717732,
      "lon": 46.67748,
      "level": 3,
      "date": "15/03/2022",
      "title": "Ukrainian drone strike",
      "media_url": "https://twitter.com/no_itsmyturn/status/1503675721318871040"
    },
    {
      "lat": 31.268866,
      "lon": 51.482194,
      "level": 2,
      "date": "15/03/2022",
      "title": "Targeting of train station in Chernihiv",
      "media_url": "https://twitter.com/200_zoka/status/1503800141379158016"
    },
    {
      "lat": 30.391731,
      "lon": 50.462048,
      "level": 1,
      "date": "14/03/2022",
      "title": "Eyewitnesses film the strike on the Antonov factory from a distance"
    },
    {
      "lat": 30.468791,
      "lon": 50.488343,
      "level": 2,
      "date": "14/03/2022",
      "title": "Video of a Russian strike in Kyiv",
      "media_url": "https://twitter.com/RALee85/status/1503328469647773697"
    },
    {
      "lat": 30.468037,
      "lon": 50.488804,
      "level": 3,
      "date": "14/03/2022",
      "title": "Intercepted missile blowing up in Kyiv",
      "media_url": "https://twitter.com/SputnikATO/status/1503326760187924483"
    },
    {
      "lat": 30.940059,
      "lon": 50.592517,
      "level": 2,
      "date": "14/03/2022",
      "title": "Shelling of a bus stop and store",
      "media_url": "https://twitter.com/AlexandruC4/status/1503489621770047493"
    },
    {
      "lat": 30.246464,
      "lon": 50.613054,
      "level": 1,
      "date": "14/03/2022",
      "title": "Ukrainian forces shelling hidden Russian forces",
      "media_url": "https://twitter.com/theragex/status/1503264980569042946"
    },
    {
      "lat": 30.470378,
      "lon": 50.487391,
      "level": 3,
      "date": "14/03/2022",
      "title": "Intercepted missile blowing up in Kyiv",
      "media_url": "https://twitter.com/MarioLeb79/status/1503362267391352847"
    },
    {
      "lat": 38.369249,
      "lon": 48.648346,
      "level": 1,
      "date": "14/03/2022",
      "title": "alleged incendiary munition use"
    },
    {
      "lat": 30.940011,
      "lon": 50.59251,
      "level": 3,
      "date": "14/03/2022",
      "title": "Bombing seen on CCTV",
      "media_url": "https://twitter.com/antiputler_news/status/1503424000713711626"
    },
    {
      "lat": 37.561556,
      "lon": 48.813638,
      "level": 1,
      "date": "13/03/2022",
      "title": "Explosion at communications tower"
    },
    {
      "lat": 37.281045,
      "lon": 49.154555,
      "level": 1,
      "date": "13/03/2022",
      "title": "Video of Russian strikes on Ukrainian forces in the outskirts of Izyum",
      "media_url": "https://twitter.com/CasusBellii/status/1503000396851200000"
    },
    {
      "lat": 30.370033,
      "lon": 50.421322,
      "level": 2,
      "date": "12/03/2022",
      "title": "footage of explosion on road"
    },
    {
      "lat": 30.290222,
      "lon": 50.226222,
      "level": 1,
      "date": "12/03/2022",
      "title": "Burning buildings following a strike",
      "media_url": "https://twitter.com/DAlperovitch/status/1502540395196174336"
    },
    {
      "lat": 30.369793,
      "lon": 50.421118,
      "level": 2,
      "date": "12/03/2022",
      "title": "A Ukranian civilian narrowly escapes a airstrike",
      "media_url": "https://twitter.com/KyivTimesHD/status/1502752561434140672"
    },
    {
      "lat": 32.000833,
      "lon": 47.016034,
      "level": 2,
      "date": "12/03/2022",
      "title": "Cluster munition strike in residential area.",
      "media_url": "https://twitter.com/loogunda/status/1502585247640309760"
    },
    {
      "lat": 30.20003,
      "lon": 50.622007,
      "level": 1,
      "date": "11/03/2022",
      "title": "Russian missilles being fired",
      "media_url": "https://twitter.com/trbrtc/status/1502408517378093061"
    },
    {
      "lat": 37.510517,
      "lon": 47.107652,
      "level": 2,
      "date": "11/03/2022",
      "title": "Apartment building hit by tank fire"
    },
    {
      "lat": 37.684233,
      "lon": 47.12591,
      "level": 2,
      "date": "10/03/2022",
      "title": "Artillery barrage impacting a residential area.",
      "media_url": "https://twitter.com/GraniTweet/status/1501862023365283847"
    },
    {
      "lat": 31.998383,
      "lon": 46.836887,
      "level": 3,
      "date": "09/03/2022",
      "title": "Missile strike on civilian housing area"
    },
    {
      "lat": 36.34102,
      "lon": 49.99613,
      "level": 2,
      "date": "09/03/2022",
      "title": "Shell explodes in Novosaltovsky market,Kharkiv",
      "media_url": "https://twitter.com/no_itsmyturn/status/1500197847047839749"
    },
    {
      "lat": 37.646067,
      "lon": 47.104988,
      "level": 1,
      "date": "09/03/2022",
      "title": "0:34-0:46 Drone footage showing Russian strike",
      "media_url": "https://twitter.com/EuropeOsint/status/1501646900168212492"
    },
    {
      "lat": 30.807358,
      "lon": 50.568271,
      "level": 1,
      "date": "08/03/2022",
      "title": "alleged missile shrapnel landed on a warehouse/building supplies plant",
      "media_url": "https://twitter.com/antiputler_news/status/1501216279167913996"
    },
    {
      "lat": 30.347845,
      "lon": 50.761265,
      "level": 3,
      "date": "08/03/2022",
      "title": "Russian vehicles destroyed in shelling",
      "media_url": "https://twitter.com/KrukuOne/status/1500915853193269256"
    },
    {
      "lat": 32.005158,
      "lon": 46.841921,
      "level": 2,
      "date": "07/03/2022",
      "title": "Residential area being heavily shelled near Mykolaiv",
      "media_url": "https://twitter.com/shtirlitz53/status/1500831170749255681"
    },
    {
      "lat": 30.317104,
      "lon": 50.179509,
      "level": 3,
      "date": "07/03/2022",
      "title": "Flight of multiple missiles over Vasylkiv, reportedly in the direction of Chernyhiv."
    },
    {
      "lat": 30.262149,
      "lon": 50.489229,
      "level": 1,
      "date": "07/03/2022",
      "title": "Artillery fire can be heard coming from Kyiv",
      "media_url": "https://twitter.com/TreyYingst/status/1500842733048668172"
    },
    {
      "lat": 36.154536,
      "lon": 49.950587,
      "level": 3,
      "date": "06/03/2022",
      "title": "airstrike on warehouse",
      "media_url": "https://twitter.com/clashreport/status/1500377845675311105"
    },
    {
      "lat": 36.201591,
      "lon": 50.060549,
      "level": 3,
      "date": "06/03/2022",
      "title": "Strike on a building at night, north Kharkiv"
    },
    {
      "lat": 28.801761,
      "lon": 51.327808,
      "level": 3,
      "date": "06/03/2022",
      "title": "Shelling in Ovruch, Zhytomyr Oblast",
      "media_url": "https://twitter.com/SputnikATO/status/1500330516913999876"
    },
    {
      "lat": 28.61086,
      "lon": 49.235224,
      "level": 3,
      "date": "06/03/2022",
      "title": "Missiles hit Vinnytsia Airport",
      "media_url": "https://twitter.com/COUPSURE/status/1500444019326959617"
    },
    {
      "lat": 28.567478,
      "lon": 49.210603,
      "level": 1,
      "date": "06/03/2022",
      "title": "Missile moving towards Vinnytsia Airport",
      "media_url": "https://twitter.com/AuroraIntel/status/1500458496852217862"
    },
    {
      "lat": 28.540447,
      "lon": 49.197576,
      "level": 1,
      "date": "06/03/2022",
      "title": "Missile moving towards Vinnytsia Airport",
      "media_url": "https://twitter.com/no_itsmyturn/status/1500465245210525696"
    },
    {
      "lat": 28.338282,
      "lon": 49.092351,
      "level": 1,
      "date": "06/03/2022",
      "title": "Missile moving towards Vinnytsia Airport",
      "media_url": "https://twitter.com/Alex93419575/status/1500464867622461443"
    },
    {
      "lat": 30.26043,
      "lon": 50.490225,
      "level": 3,
      "date": "06/03/2022",
      "title": "Explosion in Irpen",
      "media_url": "https://twitter.com/KyleJGlen/status/1500432948390158338"
    },
    {
      "lat": 36.236827,
      "lon": 49.99927,
      "level": 3,
      "date": "05/03/2022",
      "title": "Russian cruise missile strike in Kharkiv residential area",
      "media_url": "https://twitter.com/ELINTNews/status/1499375631653556224"
    },
    {
      "lat": 37.58426,
      "lon": 48.738994,
      "level": 1,
      "date": "05/03/2022",
      "title": "Interseption of missile",
      "media_url": "https://twitter.com/NotWoofers/status/1500170938243076101"
    },
    {
      "lat": 37.627629,
      "lon": 48.705426,
      "level": 2,
      "date": "05/03/2022",
      "title": "Explosion in Kramatorsk, possible attack on Airport",
      "media_url": "https://twitter.com/OsintTv/status/1500172208584417283"
    },
    {
      "lat": 34.585313,
      "lon": 47.50727,
      "level": 3,
      "date": "04/03/2022",
      "title": "Video footage of the shelling from a webcam at the Zaporizhia Nuclear Power Plant (Enerhodar)."
    },
    {
      "lat": 30.254257,
      "lon": 50.493536,
      "level": 2,
      "date": "04/03/2022",
      "title": "Smoke Plume rising in distance on the outskirts of Irpin",
      "media_url": "https://twitter.com/nabihbulos/status/1499712171873222656"
    },
    {
      "lat": 30.348365,
      "lon": 50.761286,
      "level": 1,
      "date": "04/03/2022",
      "title": "Shelling of buildings",
      "media_url": "https://twitter.com/markito0171/status/1499737718162608134"
    },
    {
      "lat": 30.206266,
      "lon": 50.532903,
      "level": 2,
      "date": "04/03/2022",
      "title": "0:12-0:36 Drone footage showing explosions",
      "media_url": "https://twitter.com/markito0171/status/1499838283202899969"
    },
    {
      "lat": 30.180428,
      "lon": 50.542532,
      "level": 2,
      "date": "04/03/2022",
      "title": "0:00-0:11 Drone footage showing explosion",
      "media_url": "https://twitter.com/markito0171/status/1499838283202899969"
    },
    {
      "lat": 36.298505,
      "lon": 50.02785,
      "level": 2,
      "date": "03/03/2022",
      "title": "Shelling of residential area",
      "media_url": "https://twitter.com/KyleJGlen/status/1499336508364492801"
    },
    {
      "lat": 31.276828,
      "lon": 51.498315,
      "level": 3,
      "date": "03/03/2022",
      "title": "Multiple strike/bombing on civilian building"
    },
    {
      "lat": 30.546624,
      "lon": 50.399376,
      "level": 2,
      "date": "03/03/2022",
      "title": "Large fire after missile impact"
    },
    {
      "lat": 34.643339,
      "lon": 47.478465,
      "level": 3,
      "date": "03/03/2022",
      "title": "Explosions and fires on the outskirts of Enerhodar",
      "media_url": "https://twitter.com/CasusBellii/status/1499423856540409865"
    },
    {
      "lat": 31.277672,
      "lon": 51.499511,
      "level": 3,
      "date": "03/03/2022",
      "title": "Bombing of residential building",
      "media_url": "https://twitter.com/nexta_tv/status/1499358871336460290"
    },
    {
      "lat": 36.232901,
      "lon": 49.989157,
      "level": 4,
      "date": "02/03/2022",
      "title": "Explosion, reportedly took place at 13:01 (Ukraine time), hit in the area of MAIDAN KONSTYTUTSII/ the palace of labor (Дворец труда)."
    },
    {
      "lat": 38.358926,
      "lon": 48.95328,
      "level": 3,
      "date": "02/03/2022",
      "title": "Strike on brewery.",
      "media_url": "https://twitter.com/rescuero/status/1498988051174989832"
    },
    {
      "lat": 30.264427,
      "lon": 50.541631,
      "level": 3,
      "date": "02/03/2022",
      "title": "Russian airstrik on residential building"
    },
    {
      "lat": 30.264106,
      "lon": 50.541747,
      "level": 3,
      "date": "02/03/2022",
      "title": "Russian Su-25 attack aircraft conducting an air strike in Irpin",
      "media_url": "https://twitter.com/RALee85/status/1499053814241968133"
    },
    {
      "lat": 36.227401,
      "lon": 49.986471,
      "level": 1,
      "date": "02/03/2022",
      "title": "Explosion in city center",
      "media_url": "https://twitter.com/aldin_ww/status/1498983452464590861"
    },
    {
      "lat": 30.692319,
      "lon": 46.413633,
      "level": 1,
      "date": "02/03/2022",
      "title": "Explosion at airport",
      "media_url": "https://twitter.com/nexta_tv/status/1498945034669993987"
    },
    {
      "lat": 30.453856,
      "lon": 50.471756,
      "level": 1,
      "date": "01/03/2022",
      "title": "Strike on Kyiv TV tower",
      "media_url": "https://twitter.com/nytimes/status/1498709681816092681"
    },
    {
      "lat": 29.929897,
      "lon": 50.642256,
      "level": 3,
      "date": "01/03/2022",
      "title": "Tank firing at residential building",
      "media_url": "https://twitter.com/IntelDoge/status/1498703033391325184"
    },
    {
      "lat": 32.61393,
      "lon": 46.67891,
      "level": 2,
      "date": "01/03/2022",
      "title": "Strike/shelling of residential building, four injured",
      "media_url": "https://twitter.com/Osinttechnical/status/1498593301699739649"
    },
    {
      "lat": 30.447249,
      "lon": 50.473447,
      "level": 3,
      "date": "01/03/2022",
      "title": "Strike on TV tower area in Kyiv - view from down the street",
      "media_url": "https://twitter.com/laura_zelinska/status/1498695443638894595"
    },
    {
      "lat": 30.454816,
      "lon": 50.472667,
      "level": 2,
      "date": "01/03/2022",
      "title": "Multiple explosions hit the Kyiv TV tower and its surroundings",
      "media_url": "https://twitter.com/aldin_ww/status/1498680800572751875"
    },
    {
      "lat": 32.613705,
      "lon": 46.678993,
      "level": 2,
      "date": "01/03/2022",
      "title": "Missile strike on appartment building",
      "media_url": "https://twitter.com/michaelh992/status/1498603941214441478"
    },
    {
      "lat": 36.23609,
      "lon": 50.004,
      "level": 2,
      "date": "01/03/2022",
      "title": "Missile strike hits city administration, theater buildings",
      "media_url": "https://twitter.com/christogrozev/status/1498559231141765120"
    },
    {
      "lat": 39.747862,
      "lon": 54.576964,
      "level": 3,
      "date": "01/03/2022",
      "title": "Explosion in an oil refinery in Rayazan",
      "media_url": "https://twitter.com/GirkinGirkin/status/1498598354896535555"
    },
    {
      "lat": 34.65573,
      "lon": 47.491531,
      "level": 3,
      "date": "01/03/2022",
      "title": "Bombing on the city of Enerhodar, where the nuclear power plant Saporischschja is located."
    },
    {
      "lat": 37.492182,
      "lon": 47.164481,
      "level": 4,
      "date": "01/03/2022",
      "title": "Russian military equipment being hit in Staryi Krym",
      "media_url": "https://twitter.com/aldin_ww/status/1498748931827814400"
    },
    {
      "lat": 30.453856,
      "lon": 50.471756,
      "level": 1,
      "date": "01/03/2022",
      "title": "Strike on Kyiv TV tower",
      "media_url": "https://twitter.com/ASLuhn/status/1498697887265476610"
    },
    {
      "lat": 30.453856,
      "lon": 50.471756,
      "level": 1,
      "date": "01/03/2022",
      "title": "Strike on Kyiv TV tower",
      "media_url": "https://twitter.com/mjluxmoore/status/1498684050692886537"
    },
    {
      "lat": 30.453856,
      "lon": 50.471756,
      "level": 1,
      "date": "01/03/2022",
      "title": "Strike on Kyiv TV tower"
    },
    {
      "lat": 30.453856,
      "lon": 50.471756,
      "level": 2,
      "date": "01/03/2022",
      "title": "Strike on Kyiv TV tower",
      "media_url": "https://twitter.com/SaberiFred/status/1498715284483497986"
    },
    {
      "lat": 30.453856,
      "lon": 50.471756,
      "level": 1,
      "date": "01/03/2022",
      "title": "Strike on Kyiv TV tower",
      "media_url": "https://twitter.com/MFA_Ukraine/status/1498689753448947722"
    },
    {
      "lat": 30.217119,
      "lon": 50.555161,
      "level": 1,
      "date": "28/02/2022",
      "title": "Person firing RPG",
      "media_url": "https://twitter.com/666_mancer/status/1498365347795247107"
    },
    {
      "lat": 36.358188,
      "lon": 50.029698,
      "level": 2,
      "date": "28/02.2022",
      "title": "MLRS strike in central Kharkiv",
      "media_url": "https://twitter.com/Osinttechnical/status/1498234139551715329"
    },
    {
      "lat": 36.362763,
      "lon": 50.028497,
      "level": 2,
      "date": "28/02/2022",
      "title": "MLRS strike in central Kharkiv",
      "media_url": "https://twitter.com/momchil_ivanov1/status/1498238338859425792"
    },
    {
      "lat": 36.234945,
      "lon": 50.031709,
      "level": 3,
      "date": "28/02/2022",
      "title": "MLRS strike on residential area in Kharkiv",
      "media_url": "https://twitter.com/poppoppopkt/status/1498253254907789313"
    },
    {
      "lat": 36.359121,
      "lon": 50.031577,
      "level": 2,
      "date": "28/02/2022",
      "title": "Footage of explosion in Kharkiv",
      "media_url": "https://twitter.com/RALee85/status/1498246411774799874"
    },
    {
      "lat": 34.886714,
      "lon": 50.313106,
      "level": 1,
      "date": "28/02/2022",
      "title": "Fire in Okhtyrka as result of shelling",
      "media_url": "https://twitter.com/Liveuamap/status/1498249640021528582"
    },
    {
      "lat": 36.212535,
      "lon": 50.017816,
      "level": 1,
      "date": "28/02/2022",
      "title": "Bomb in front of store",
      "media_url": "https://twitter.com/brechtcastel/status/1498594115159736320"
    },
    {
      "lat": 36.433284,
      "lon": 49.927838,
      "level": 2,
      "date": "28/02/2022",
      "title": "CCTV footage showing bombing"
    },
    {
      "lat": 36.330746,
      "lon": 50.003538,
      "level": 2,
      "date": "28/02/2022",
      "title": "Rocket booster in a residential area of Kharkiv",
      "media_url": "https://twitter.com/RALee85/status/1498259982428610560"
    },
    {
      "lat": 37.664528,
      "lon": 47.102333,
      "level": 1,
      "date": "27/02/2022",
      "title": "Explosion in city",
      "media_url": "https://twitter.com/AKirilenko_True/status/1497941425400565763"
    },
    {
      "lat": 28.714058,
      "lon": 50.277576,
      "level": 2,
      "date": "27/02/2022",
      "title": "CCTV footage showing large explosion",
      "media_url": "https://twitter.com/nexta_tv/status/1497976393162018827"
    },
    {
      "lat": 28.715306,
      "lon": 50.274933,
      "level": 2,
      "date": "27/02/2022",
      "title": "Explosion in a Ukrainian military storage site",
      "media_url": "https://twitter.com/AuroraIntel/status/1497971672028221448"
    },
    {
      "lat": 30.290723,
      "lon": 50.22627,
      "level": 4,
      "date": "27/02/2022",
      "title": "Fire at oil depot in the village of Kryachky",
      "media_url": "https://twitter.com/hwag_ucmc/status/1497728930425491459"
    },
    {
      "lat": 36.350539,
      "lon": 49.985618,
      "level": 1,
      "date": "26/02/2022",
      "title": "Missile fell in playground next to school"
    },
    {
      "lat": 30.465312,
      "lon": 50.422783,
      "level": 3,
      "date": "26/02/2022",
      "title": "A civilian building hit by Russian missile Kyiv",
      "media_url": "https://twitter.com/CITeam_en/status/1497484254137225216"
    },
    {
      "lat": 36.27788,
      "lon": 50.019711,
      "level": 2,
      "date": "26/02/2022",
      "title": "MLRS strikes in Kharkiv",
      "media_url": "https://twitter.com/RALee85/status/1497437744125128709"
    },
    {
      "lat": 36.347431,
      "lon": 50.020764,
      "level": 2,
      "date": "26/02/2022",
      "title": "Missile exploded on the sidewalk. Reportedly one pedestrian died."
    },
    {
      "lat": 32.65695,
      "lon": 46.65502,
      "level": 2,
      "date": "26/02/2022",
      "title": "Su-25 hit by a missile near Kherson",
      "media_url": "https://twitter.com/COUPSURE/status/1497659200666845186"
    },
    {
      "lat": 36.189633,
      "lon": 50.048122,
      "level": 3,
      "date": "25/02/2022",
      "title": "Shelling of road",
      "media_url": "https://twitter.com/Archer83Able/status/1497266803214532609"
    },
    {
      "lat": 30.490107,
      "lon": 50.518652,
      "level": 2,
      "date": "25/02/2022",
      "title": "Tank driving over civilian car",
      "media_url": "https://twitter.com/AlexKhrebet/status/1497123956318523392"
    },
    {
      "lat": 32.052011,
      "lon": 46.948578,
      "level": 2,
      "date": "25/02/2022",
      "title": "Explosion in the direction of airport",
      "media_url": "https://twitter.com/BreakingNews_n/status/1497307206374633472"
    },
    {
      "lat": 36.278364,
      "lon": 50.016577,
      "level": 3,
      "date": "25/02/2022",
      "title": "MLRS strikes in Kharkiv",
      "media_url": "https://twitter.com/RALee85/status/1497437744125128709"
    },
    {
      "lat": 30.490194,
      "lon": 50.518781,
      "level": 2,
      "date": "25/02/2022",
      "title": " Tank driving over civilian car",
      "media_url": "https://twitter.com/Bachodolidze/status/1497140092896432129"
    },
    {
      "lat": 34.869819,
      "lon": 50.309797,
      "level": 1,
      "date": "25/02/2022",
      "title": "Alledged kindergarten hit by missile/artillery.",
      "media_url": "https://twitter.com/KyivIndependent/status/1497184726595125250"
    },
    {
      "lat": 30.6145,
      "lon": 50.40597,
      "level": 2,
      "date": "25/02/2022",
      "title": "Interception of shelling",
      "media_url": "https://twitter.com/IdeologyWars/status/1497038963067875328"
    },
    {
      "lat": 30.599661,
      "lon": 50.395965,
      "level": 2,
      "date": "25/02/2022",
      "title": "Interception of shelling",
      "media_url": "https://twitter.com/IdeologyWars/status/1497039245277642752"
    },
    {
      "lat": 30.490184,
      "lon": 50.518715,
      "level": 3,
      "date": "25/02/2022",
      "title": "aftermath of tank driving over civilian car",
      "media_url": "https://twitter.com/no_itsmyturn/status/1497136412046544896"
    },
    {
      "lat": 30.254064,
      "lon": 50.553249,
      "level": 1,
      "date": "24/02/2022",
      "title": "Sound of missiles",
      "media_url": "https://twitter.com/NeilPHauer/status/1496890420260974596"
    },
    {
      "lat": 36.359339,
      "lon": 49.990083,
      "level": 1,
      "date": "24/02/2022",
      "title": "Russian multiple launch rocket systems (MLRS) impacting reportedly on the outskirts of Kharkiv",
      "media_url": "https://twitter.com/ELINTNews/status/1496705653422895108"
    },
    {
      "lat": 36.34127,
      "lon": 50.04205,
      "level": 2,
      "date": "24/02/2022",
      "title": "Fighting in the background",
      "media_url": "https://twitter.com/RALee85/status/1496774496790929412"
    },
    {
      "lat": 30.275,
      "lon": 50.566944,
      "level": 2,
      "date": "24/02/2022",
      "title": "Helicopter bombing",
      "media_url": "https://twitter.com/RALee85/status/1496809383929524230"
    },
    {
      "lat": 37.47667,
      "lon": 47.10064,
      "level": 2,
      "date": "24/02/2022",
      "title": "Destroyed radar base",
      "media_url": "https://twitter.com/200_zoka/status/1496763694159695873"
    },
    {
      "lat": 32.650292,
      "lon": 46.656876,
      "level": 3,
      "date": "24/02/2022",
      "title": "Observed explosion cloud coming from the direction Antoniwka Bridge"
    },
    {
      "lat": 30.691307,
      "lon": 46.479627,
      "level": 2,
      "date": "24/02/2022",
      "title": "Smoke from explosion in the background",
      "media_url": "https://twitter.com/KyleJGlen/status/1496773833839230977"
    },
    {
      "lat": 36.681975,
      "lon": 49.829793,
      "level": 2,
      "date": "24/02/2022",
      "title": "Bombing in the city",
      "media_url": "https://twitter.com/Michael1Sheldon/status/1496717647089651716"
    },
    {
      "lat": 39.229677,
      "lon": 48.742085,
      "level": 2,
      "date": "24/02/2022",
      "title": "Explosions in the background",
      "media_url": "https://twitter.com/ua_industrial/status/1496709775886884871"
    },
    {
      "lat": 24.71519,
      "lon": 48.89714,
      "level": 2,
      "date": "24/02/2022",
      "title": "Explosion near the airport",
      "media_url": "https://twitter.com/RALee85/status/1496735344221470721"
    },
    {
      "lat": 30.494393,
      "lon": 50.604956,
      "level": 2,
      "date": "24/02/2022",
      "title": "Helicopters using flares",
      "media_url": "https://twitter.com/Archer83Able/status/1496821978669502471"
    },
    {
      "lat": 30.75581,
      "lon": 50.136475,
      "level": 2,
      "date": "24/02/2022",
      "title": "Helicopter bombing",
      "media_url": "https://twitter.com/Archer83Able/status/1496828953515937794"
    },
    {
      "lat": 24.71519,
      "lon": 48.89714,
      "level": 2,
      "date": "24/02/2022",
      "title": "Explosion in the background",
      "media_url": "https://twitter.com/dzyga71/status/1496719052592631809"
    },
    {
      "lat": 30.609917,
      "lon": 50.438639,
      "level": 1,
      "date": "24/02/2022",
      "title": "Bombing in the distance in Kyiv",
      "media_url": "https://twitter.com/tucamaiacaetano/status/1496704498177294355"
    },
    {
      "lat": 24.712699,
      "lon": 48.906787,
      "level": 1,
      "date": "24/02/2022",
      "title": "Bombing in the city",
      "media_url": "https://twitter.com/NewsX/status/1496729252795928578"
    },
    {
      "lat": 37.239502,
      "lon": 47.775501,
      "level": 1,
      "date": "24/02/2022",
      "title": "Artillery strike at hospital",
      "media_url": "https://twitter.com/Volnovakha/status/1496789425287839746"
    },
    {
      "lat": 30.203996,
      "lon": 50.567716,
      "level": 2,
      "date": "24/02/2022",
      "title": "bombing in the background",
      "media_url": "https://twitter.com/666_mancer/status/1496818023306567681"
    },
    {
      "lat": 39.182247,
      "lon": 48.750731,
      "level": 1,
      "date": "22/02/2022",
      "title": "Footage of shelling",
      "media_url": "https://twitter.com/COUPSURE/status/1496164131833102348"
    },
    {
      "lat": 39.237522,
      "lon": 48.733645,
      "level": 2,
      "date": "22/02/2022",
      "title": "Footage from film crews taking refuge from shelling",
      "media_url": "https://twitter.com/BackAndAlive/status/1496162101349523461"
    },
    {
      "lat": 37.504368,
      "lon": 47.940877,
      "level": 6,
      "date": "17/02/2022",
      "title": "Shelling audible",
      "media_url": "https://twitter.com/markito0171/status/1494239711996559362"
    },
    {
      "lat": 30.474099,
      "lon": 50.453496,
      "level": 2,
      "date": "16/02/2022",
      "title": "Two cruise missile strikes on Kyiv",
      "media_url": "https://twitter.com/sentdefender/status/1503977928270520321"
    }
  ],
  "infra_damage": [
    {
      "lat": 30.27088,
      "lon": 50.565275,
      "level": 2,
      "date": "31/03/2022",
      "title": "Widespread destruction",
      "media_url": "https://twitter.com/tinso_ww/status/1509519090221780995/photo/3"
    },
    {
      "lat": 37.551134,
      "lon": 47.097829,
      "level": 2,
      "date": "31/03/2022",
      "title": "Wedespread destruction of the city center",
      "media_url": "https://twitter.com/Militarylandnet/status/1509438591952424962"
    },
    {
      "lat": 37.7351,
      "lon": 48.1329,
      "level": 2,
      "date": "31/03/2022",
      "title": "Shelling of school n° 7 in Avdiivka",
      "media_url": "https://twitter.com/bamr69/status/1509556617607532555"
    },
    {
      "lat": 37.639705,
      "lon": 47.109007,
      "level": 2,
      "date": "31/03/2022",
      "title": "Russian tank firing at residential buildings in Mariupol",
      "media_url": "https://twitter.com/MarQs__/status/1509423783068807178"
    },
    {
      "lat": 30.262229,
      "lon": 50.490697,
      "level": 2,
      "date": "31/03/2022",
      "title": "Residential damage after shelling",
      "media_url": "https://twitter.com/tinso_ww/status/1509482363465650176"
    },
    {
      "lat": 37.610314,
      "lon": 47.150975,
      "level": 2,
      "date": "31/03/2022",
      "title": "Fire in a residential building",
      "media_url": "https://twitter.com/RevelateursFTV/status/1509489181931753472"
    },
    {
      "lat": 30.212698,
      "lon": 50.590592,
      "level": 1,
      "date": "31/03/2022",
      "title": "Destruction at Hostomel airport after Russian forces left",
      "media_url": "https://www.youtube.com/watch?v=Pya_U9gMsUE"
    },
    {
      "lat": 29.592008,
      "lon": 50.816679,
      "level": 2,
      "date": "31/03/2022",
      "title": "Damaged school"
    },
    {
      "lat": 37.65184,
      "lon": 47.098243,
      "level": 2,
      "date": "31/03/2022",
      "title": "Damage to apartment blocks"
    },
    {
      "lat": 31.511284,
      "lon": 50.567834,
      "level": 1,
      "date": "31/03/2022",
      "title": "Damage on small town of Nova Basan. Abandoned tanks.",
      "media_url": "https://twitter.com/markito0171/status/1509620014005075978"
    },
    {
      "lat": 36.620165,
      "lon": 50.079601,
      "level": 1,
      "date": "31/03/2022",
      "title": "Damage due to shelling on dairy farm"
    },
    {
      "lat": 36.34802,
      "lon": 50.0381,
      "level": 2,
      "date": "31/03/2022",
      "title": "Commercial structures on fire",
      "media_url": "https://twitter.com/TpyxaNews/status/1509415000947183622"
    },
    {
      "lat": 37.553555,
      "lon": 47.095102,
      "level": 2,
      "date": "30/03/2022",
      "title": "residential destruction of Mariupol as a result of Russian shelling",
      "media_url": "https://twitter.com/trbrtc/status/1508949330488700930"
    },
    {
      "lat": 34.922059,
      "lon": 50.474907,
      "level": 2,
      "date": "30/03/2022",
      "title": "Shelling marks and damages to the hospital."
    },
    {
      "lat": 38.489355,
      "lon": 48.862255,
      "level": 2,
      "date": "30/03/2022",
      "title": "Shelled Lysychansk, civilian casualties"
    },
    {
      "lat": 37.557396,
      "lon": 47.10957,
      "level": 2,
      "date": "30/03/2022",
      "title": "Damaged residential buildings in Mariupol"
    },
    {
      "lat": 30.226175,
      "lon": 50.522607,
      "level": 1,
      "date": "30/03/2022",
      "title": "Damage to State University of the Fiscal Service"
    },
    {
      "lat": 31.997329,
      "lon": 46.97483,
      "level": 1,
      "date": "29/03/2022",
      "title": "Partial destruction of the Mykolaiv Regional State Administration building",
      "media_url": "https://twitter.com/maxseddon/status/1508712143708987401"
    },
    {
      "lat": 34.958572,
      "lon": 50.473538,
      "level": 2,
      "date": "29/03/2022",
      "title": "Image 2: Destruction of the town of Trostyanets"
    },
    {
      "lat": 37.548926,
      "lon": 47.095945,
      "level": 2,
      "date": "29/03/2022",
      "title": "Drone footage of destroyed Mariupol Drama Theatre"
    },
    {
      "lat": 36.229382,
      "lon": 49.97266,
      "level": 1,
      "date": "29/03/2022",
      "title": "Destruction of reported \"archtitechural momument\" and the Zalopanskaya fire department."
    },
    {
      "lat": 31.997322,
      "lon": 46.974853,
      "level": 2,
      "date": "29/03/2022",
      "title": "Destruction of Mykolaiv Regional State Administration"
    },
    {
      "lat": 31.997384,
      "lon": 46.97479,
      "level": 2,
      "date": "29/03/2022",
      "title": "Destruction of Mykolaiv Regional State Administration"
    },
    {
      "lat": 37.500799,
      "lon": 47.594557,
      "level": 2,
      "date": "29/03/2022",
      "title": "Destroyed buildings (inc bus station) and tank in Volnovakha"
    },
    {
      "lat": 31.997618,
      "lon": 46.974829,
      "level": 2,
      "date": "29/03/2022",
      "title": "Destroyed building of Mykolaiv Regional State Administration"
    },
    {
      "lat": 37.52685,
      "lon": 47.114975,
      "level": 2,
      "date": "29/03/2022",
      "title": "Damage to apartment building and destruction of store"
    },
    {
      "lat": 31.295028,
      "lon": 51.494514,
      "level": 2,
      "date": "29/03/2022",
      "title": "Damage in residential area"
    },
    {
      "lat": 37.642991,
      "lon": 47.106138,
      "level": 1,
      "date": "29/03/2022",
      "title": "Apartment block on fire, reportedly the aftermath of shelling."
    },
    {
      "lat": 36.418714,
      "lon": 50.134087,
      "level": 1,
      "date": "28/03/2022",
      "title": "0:24- 0:40 Russian forces and wedespread production of residential houses",
      "media_url": "https://twitter.com/tinso_ww/status/1508523747631849473"
    },
    {
      "lat": 36.22934,
      "lon": 49.973366,
      "level": 1,
      "date": "27/03/2022",
      "title": "Strike in Kharkiv near a school",
      "media_url": "https://twitter.com/TpyxaNews/status/1507981368600539137"
    },
    {
      "lat": 37.540872,
      "lon": 47.117513,
      "level": 2,
      "date": "27/03/2022",
      "title": "Severe destruction in residential area"
    },
    {
      "lat": 37.485703,
      "lon": 47.067425,
      "level": 2,
      "date": "27/03/2022",
      "title": "School Nr. 15, Mariupil'. Shelling marks on the school buildings and a crater in the school yard."
    },
    {
      "lat": 30.321439,
      "lon": 50.16975,
      "level": 1,
      "date": "27/03/2022",
      "title": "Fire at oil depot",
      "media_url": "https://twitter.com/Tagesspiegel/status/1497726726536896512"
    },
    {
      "lat": 30.310994,
      "lon": 50.189476,
      "level": 1,
      "date": "27/03/2022",
      "title": "Destruction of building after strike",
      "media_url": "https://twitter.com/yahyaaliyar_/status/1497832229375991809"
    },
    {
      "lat": 36.236424,
      "lon": 50.003678,
      "level": 2,
      "date": "27/03/2022",
      "title": "Destruction in Kharkiv"
    },
    {
      "lat": 37.659989,
      "lon": 47.097964,
      "level": 1,
      "date": "27/03/2022",
      "title": "Damage to the Holy Dormition Church grounds on the outskirsts of Mariupol"
    },
    {
      "lat": 31.2949,
      "lon": 51.494656,
      "level": 2,
      "date": "27/03/2022",
      "title": "Damage to Hotel Ukraine and surroundings in Chernihiv"
    },
    {
      "lat": 37.54755,
      "lon": 47.098399,
      "level": 1,
      "date": "27/03/2022",
      "title": "Burning apartment building",
      "media_url": "https://twitter.com/me_marco/status/1508139370326413315"
    },
    {
      "lat": 36.229736,
      "lon": 49.973456,
      "level": 2,
      "date": "27/03/2022",
      "title": "Aftermath of shelling in Kharkiv (damage to school 7 and fire depot)"
    },
    {
      "lat": 30.226697,
      "lon": 50.446788,
      "level": 2,
      "date": "27/03/2022",
      "title": "A destroyed gas station in Stoyanka",
      "media_url": "https://twitter.com/Nat_anest/status/1508120319625768962"
    },
    {
      "lat": 24.056213,
      "lon": 49.85985,
      "level": 1,
      "date": "26/03/2022",
      "title": "Smoke coming from building in Lviv",
      "media_url": "https://twitter.com/no_itsmyturn/status/1507758030099730432"
    },
    {
      "lat": 37.52331,
      "lon": 47.091365,
      "level": 2,
      "date": "26/03/2022",
      "title": "Residential building damaged in Mariupol"
    },
    {
      "lat": 34.968745,
      "lon": 50.482011,
      "level": 1,
      "date": "26/03/2022",
      "title": "Image 1: Damaged train station",
      "media_url": "https://twitter.com/aldin_ww/status/1507735357391089667"
    },
    {
      "lat": 34.96595,
      "lon": 50.481152,
      "level": 1,
      "date": "26/03/2022",
      "title": "Image 1/2: heavy damage in front of train station",
      "media_url": "https://twitter.com/aldin_ww/status/1507735225220091907"
    },
    {
      "lat": 31.272188,
      "lon": 51.475946,
      "level": 2,
      "date": "26/03/2022",
      "title": "Footage of shelling in and industrial destruction in Chernihiv",
      "media_url": "https://twitter.com/Cosmonaut19/status/1507592684793634816"
    },
    {
      "lat": 30.029717,
      "lon": 50.369785,
      "level": 1,
      "date": "26/03/2022",
      "title": "Family eco-park 'Yasnogorodka' mostly burned down after shelling"
    },
    {
      "lat": 34.965281,
      "lon": 50.481686,
      "level": 1,
      "date": "26/03/2022",
      "title": "Destroyed residential building in Trostyanets",
      "media_url": "https://twitter.com/RALee85/status/1507795811643580420/photo/4"
    },
    {
      "lat": 37.553384,
      "lon": 47.112895,
      "level": 2,
      "date": "26/03/2022",
      "title": "Damaged residential buildings in Mariupol"
    },
    {
      "lat": 30.216985,
      "lon": 50.512106,
      "level": 2,
      "date": "26/03/2022",
      "title": "Damaged houses in residential area in Irpin",
      "media_url": "https://twitter.com/HillridgeOSINT/status/1507468492785831938"
    },
    {
      "lat": 36.439851,
      "lon": 49.932924,
      "level": 2,
      "date": "26/03/2022",
      "title": "Damaged Menorah on the outskirts of Kharkiv",
      "media_url": "https://twitter.com/BnaiBrith/status/1507767270625394688"
    },
    {
      "lat": 37.268833,
      "lon": 49.218377,
      "level": 5,
      "date": "26/03/2022",
      "title": "Church used as a place for distribution of humanitarian aid allegedly struck by the Ukrainian Armed Forces"
    },
    {
      "lat": 37.633185,
      "lon": 47.100868,
      "level": 2,
      "date": "26/03/2022",
      "title": "Children rehabilitation center in Mariupol destroyed",
      "media_url": "https://twitter.com/lesiavasylenko/status/1507478715571515399"
    },
    {
      "lat": 31.339531,
      "lon": 51.513318,
      "level": 1,
      "date": "26/03/2022",
      "title": "0:29-0:43 Damage to residential building and burned out car",
      "media_url": "https://www.youtube.com/watch?v=ehngnRblKtA"
    },
    {
      "lat": 31.329324,
      "lon": 51.520657,
      "level": 1,
      "date": "26/03/2022",
      "title": "0:18-0:28 Damage to residential building",
      "media_url": "https://www.youtube.com/watch?v=ehngnRblKtA"
    },
    {
      "lat": 37.80479,
      "lon": 48.132477,
      "level": 1,
      "date": "25/03/2022",
      "title": "Potential incendiary strike near water utilities building near Donetsk.",
      "media_url": "https://twitter.com/aldin_ww/status/1507418336904171522"
    },
    {
      "lat": 37.52675,
      "lon": 47.112448,
      "level": 1,
      "date": "25/03/2022",
      "title": "Mariupol police station damaged",
      "media_url": "https://twitter.com/aldin_ww/status/1507457885328007170"
    },
    {
      "lat": 36.235073,
      "lon": 49.999983,
      "level": 2,
      "date": "25/03/2022",
      "title": "Images of the destruction due to shelling on the Faculty of Economics of Kharkiv"
    },
    {
      "lat": 34.893039,
      "lon": 50.304791,
      "level": 2,
      "date": "25/03/2022",
      "title": "Image 3: destroyed houses in Okhtyrka",
      "media_url": "https://twitter.com/RF200_NOW/status/1507162383516827651/photo/3"
    },
    {
      "lat": 37.552113,
      "lon": 47.107934,
      "level": 2,
      "date": "25/03/2022",
      "title": "Heavy building damage, Russian tank moving in residental area in Mariupol"
    },
    {
      "lat": 37.63342,
      "lon": 47.100706,
      "level": 2,
      "date": "25/03/2022",
      "title": "Destruction of Children's Rehabilitation Center"
    },
    {
      "lat": 37.510548,
      "lon": 47.107779,
      "level": 3,
      "date": "25/03/2022",
      "title": "Destruction in Mariupol",
      "media_url": "https://twitter.com/MarQs__/status/1507390418257854465"
    },
    {
      "lat": 30.260371,
      "lon": 50.49006,
      "level": 1,
      "date": "25/03/2022",
      "title": "Damage to Suburbian Irpen."
    },
    {
      "lat": 37.541791,
      "lon": 47.086766,
      "level": 2,
      "date": "25/03/2022",
      "title": "Civilians fleeing Mariupol by car, passing throught multiple localtions, lot of infra destruction",
      "media_url": "https://twitter.com/TpyxaNews/status/1507716270166360071"
    },
    {
      "lat": 37.509355,
      "lon": 47.94012,
      "level": 2,
      "date": "24/03/2022",
      "title": "image 3: damage to civilian homes in Marjinka",
      "media_url": "https://twitter.com/MarQs__/status/1506954095613071362/photo/3"
    },
    {
      "lat": 37.505861,
      "lon": 47.943599,
      "level": 2,
      "date": "24/03/2022",
      "title": "image 2: damage to residential building in Marjinka",
      "media_url": "https://twitter.com/MarQs__/status/1506954095613071362/photo/2"
    },
    {
      "lat": 37.503174,
      "lon": 47.942344,
      "level": 2,
      "date": "24/03/2022",
      "title": "image 1: damage to residential building in Marjinka",
      "media_url": "https://twitter.com/MarQs__/status/1506954095613071362"
    },
    {
      "lat": 38.507956,
      "lon": 48.944226,
      "level": 2,
      "date": "24/03/2022",
      "title": "damage to residential area and children's playground",
      "media_url": "https://twitter.com/TpyxaNews/status/1506890907408375815"
    },
    {
      "lat": 38.362788,
      "lon": 49.02044,
      "level": 1,
      "date": "24/03/2022",
      "title": "The church of the blessed matron of Moscow reportedly damaged by shelling."
    },
    {
      "lat": 37.278867,
      "lon": 49.178005,
      "level": 2,
      "date": "24/03/2022",
      "title": "Russian shelling of Izyum",
      "media_url": "https://twitter.com/Liveuamap/status/1506970485267050499"
    },
    {
      "lat": 37.544095,
      "lon": 47.104038,
      "level": 2,
      "date": "24/03/2022",
      "title": "Residential shelling in Mariupol",
      "media_url": "https://twitter.com/RALee85/status/1506957656887640065"
    },
    {
      "lat": 34.916406,
      "lon": 50.31726,
      "level": 1,
      "date": "24/03/2022",
      "title": "Okhtyrka railway station destroyed",
      "media_url": "https://twitter.com/OlgaK2013/status/1506806102435975174"
    },
    {
      "lat": 36.234899,
      "lon": 50.000366,
      "level": 1,
      "date": "24/03/2022",
      "title": "Kharkiv National University of Civil Engineering and Architecture damaged by strike."
    },
    {
      "lat": 36.287762,
      "lon": 50.054701,
      "level": 1,
      "date": "24/03/2022",
      "title": "Image 3: Damage to Residential building"
    },
    {
      "lat": 37.55735,
      "lon": 47.100822,
      "level": 2,
      "date": "24/03/2022",
      "title": "Damage to residential buildings"
    },
    {
      "lat": 37.277999,
      "lon": 49.19732,
      "level": 2,
      "date": "24/03/2022",
      "title": "Damage to residential areas in Izyum as a result of shelling",
      "media_url": "https://twitter.com/no_itsmyturn/status/1506967361898823680"
    },
    {
      "lat": 30.232094,
      "lon": 50.521614,
      "level": 1,
      "date": "24/03/2022",
      "title": "Damage to houses",
      "media_url": "https://twitter.com/aldin_ww/status/1507052546489208845"
    },
    {
      "lat": 37.545677,
      "lon": 47.099179,
      "level": 2,
      "date": "24/03/2022",
      "title": "Damage to a building on 47 Metalurhiv ave, Mariupol"
    },
    {
      "lat": 36.205078,
      "lon": 50.069664,
      "level": 1,
      "date": "24/03/2022",
      "title": "Children's Art School No. 6 in Kharkiv partially destroyed."
    },
    {
      "lat": 30.233172,
      "lon": 50.533695,
      "level": 1,
      "date": "24/03/2022",
      "title": "Central house of culture in Irpin damaged",
      "media_url": "https://twitter.com/lapatina_/status/1506959544651550720"
    },
    {
      "lat": 37.651726,
      "lon": 47.098224,
      "level": 2,
      "date": "24/03/2022",
      "title": "Aftermath of shelling in Mariupol.",
      "media_url": "https://twitter.com/666_mancer/status/1507000414176112644"
    },
    {
      "lat": 31.362475,
      "lon": 51.521673,
      "level": 2,
      "date": "24/03/2022",
      "title": "Aftermath of Russian shelling in Chernihiv",
      "media_url": "https://twitter.com/lesiavasylenko/status/1507011677086109714"
    },
    {
      "lat": 29.932741,
      "lon": 50.643337,
      "level": 2,
      "date": "23/03/2022",
      "title": "damage to residential buildings in Borodyanka",
      "media_url": "https://twitter.com/MFA_Ukraine/status/1506537610180800513"
    },
    {
      "lat": 37.509758,
      "lon": 47.107571,
      "level": 3,
      "date": "23/03/2022",
      "title": "Severe destruction to residential buildings in Mariupol",
      "media_url": "https://twitter.com/Militarylandnet/status/1506750987880574981"
    },
    {
      "lat": 30.256978,
      "lon": 50.517209,
      "level": 2,
      "date": "23/03/2022",
      "title": "Fire at wearhouse",
      "media_url": "https://twitter.com/markito0171/status/1506568798278758406"
    },
    {
      "lat": 31.247203,
      "lon": 51.500175,
      "level": 2,
      "date": "23/03/2022",
      "title": "Destruction of school after shelling",
      "media_url": "https://twitter.com/no_itsmyturn/status/1506644242332106752"
    },
    {
      "lat": 31.301379,
      "lon": 51.457311,
      "level": 2,
      "date": "23/03/2022",
      "title": "Destroyed bridge on the only route out of Chernihiv",
      "media_url": "https://twitter.com/Cen4infoRes/status/1508493989539942401"
    },
    {
      "lat": 30.403259,
      "lon": 50.471862,
      "level": 2,
      "date": "23/03/2022",
      "title": "Damage to a condominium complex \"Fayna Taun\" in the Shevchenkivskyi district"
    },
    {
      "lat": 37.633497,
      "lon": 47.108283,
      "level": 2,
      "date": "23/03/2022",
      "title": "Aftermath of shelling in Mariupol",
      "media_url": "https://twitter.com/no_itsmyturn/status/1506577808797093888"
    },
    {
      "lat": 36.245408,
      "lon": 49.988171,
      "level": 1,
      "date": "23/03/2022",
      "title": "Aftermath of shelling in Kharkiv",
      "media_url": "https://twitter.com/hugeglassofmilk/status/1506602613252530179"
    },
    {
      "lat": 35.96327,
      "lon": 48.49258,
      "level": 1,
      "date": "23/03/2022",
      "title": "Aftermath of attacks on railway",
      "media_url": "https://twitter.com/zcjbrooker/status/1506448510769582086"
    },
    {
      "lat": 31.300207,
      "lon": 51.458632,
      "level": 2,
      "date": "23/03/2022",
      "title": "A bridge that was destroyed between Chernihiv and Kyiv",
      "media_url": "https://twitter.com/olliecarroll/status/1506527452033699843"
    },
    {
      "lat": 37.666347,
      "lon": 47.125631,
      "level": 2,
      "date": "22/03/2022",
      "title": "shelling of residential buildings in Mariupol",
      "media_url": "https://twitter.com/m_osint/status/1506376339439431692"
    },
    {
      "lat": 29.811608,
      "lon": 50.460815,
      "level": 2,
      "date": "22/03/2022",
      "title": "picture 4: residential building on fire after fighting in Makariv",
      "media_url": "https://twitter.com/MarQs__/status/1506256425181405190/photo/4"
    },
    {
      "lat": 29.812167,
      "lon": 50.461563,
      "level": 1,
      "date": "22/03/2022",
      "title": "picture 3: destruction of Post office",
      "media_url": "https://twitter.com/MarQs__/status/1506256425181405190/photo/2"
    },
    {
      "lat": 29.813523,
      "lon": 50.465226,
      "level": 1,
      "date": "22/03/2022",
      "title": "picture 2: destroyed residential building in Makariv",
      "media_url": "https://twitter.com/MarQs__/status/1506256425181405190/photo/3"
    },
    {
      "lat": 37.525178,
      "lon": 47.116078,
      "level": 2,
      "date": "22/03/2022",
      "title": "cars being abandoned in the middle",
      "media_url": "https://twitter.com/RF200_NOW/status/1506337161108500484"
    },
    {
      "lat": 29.811738,
      "lon": 50.460641,
      "level": 2,
      "date": "22/03/2022",
      "title": "Picture 1: building on fire in the aftermath of fighting in Makariv",
      "media_url": "https://twitter.com/MarQs__/status/1506256425181405190"
    },
    {
      "lat": 36.285972,
      "lon": 50.01072,
      "level": 2,
      "date": "22/03/2022",
      "title": "Kharkiv. Shelling damages on School Nr. 134."
    },
    {
      "lat": 37.669755,
      "lon": 47.10243,
      "level": 2,
      "date": "22/03/2022",
      "title": "Fire near school after shelling",
      "media_url": "https://twitter.com/aldin_ww/status/1506309442559692803"
    },
    {
      "lat": 31.361663,
      "lon": 51.522041,
      "level": 2,
      "date": "22/03/2022",
      "title": "Destruction of houses",
      "media_url": "https://twitter.com/markito0171/status/1506727697480880131"
    },
    {
      "lat": 37.502087,
      "lon": 47.940535,
      "level": 4,
      "date": "22/03/2022",
      "title": "Destruction in Marinka"
    },
    {
      "lat": 36.186343,
      "lon": 50.017506,
      "level": 1,
      "date": "22/03/2022",
      "title": "Destroyed train wash facility in Kharkiv",
      "media_url": "https://twitter.com/TpyxaNews/status/1506162699717255170"
    },
    {
      "lat": 37.558669,
      "lon": 48.830667,
      "level": 1,
      "date": "22/03/2022",
      "title": "Damage to railway station after strike",
      "media_url": "https://twitter.com/TpyxaNews/status/1506222430741798917"
    },
    {
      "lat": 36.357035,
      "lon": 50.036118,
      "level": 1,
      "date": "22/03/2022",
      "title": "Damage to kindergarten",
      "media_url": "https://twitter.com/zcjbrooker/status/1506331057066500102"
    },
    {
      "lat": 37.630145,
      "lon": 47.10206,
      "level": 2,
      "date": "22/03/2022",
      "title": "Aftermath of shelling on residential buildings",
      "media_url": "https://twitter.com/me_marco/status/1506316006054060038"
    },
    {
      "lat": 37.686458,
      "lon": 47.126695,
      "level": 1,
      "date": "22/03/2022",
      "title": "Aftermath of shelling on residential buildings",
      "media_url": "https://twitter.com/me_marco/status/1506312760287797257"
    },
    {
      "lat": 37.810541,
      "lon": 48.019688,
      "level": 1,
      "date": "22/03/2022",
      "title": "Aftermath of shelling",
      "media_url": "https://twitter.com/666_mancer/status/1506331555848982532"
    },
    {
      "lat": 37.519247,
      "lon": 47.119984,
      "level": 2,
      "date": "21/03/2022",
      "title": "Video showing a massive crater on the ground in Mariupol"
    },
    {
      "lat": 30.417711,
      "lon": 50.502639,
      "level": 1,
      "date": "21/03/2022",
      "title": "The result of the strike on Sport Life Teremki and surroundings."
    },
    {
      "lat": 36.375488,
      "lon": 50.072034,
      "level": 2,
      "date": "21/03/2022",
      "title": "Shelling of commercial areas in Kharkiv oblast",
      "media_url": "https://twitter.com/aldin_ww/status/1505920576048803843"
    },
    {
      "lat": 30.421174,
      "lon": 50.501246,
      "level": 2,
      "date": "21/03/2022",
      "title": "Shelling attack on podil's district",
      "media_url": "https://twitter.com/KyivIndependent/status/1505663634923528195"
    },
    {
      "lat": 37.737344,
      "lon": 48.140635,
      "level": 1,
      "date": "21/03/2022",
      "title": "Reports of 15 residences destroyed in a strike. Nosecone of a 9M544/9M549 guided cargo missile included in imagery."
    },
    {
      "lat": 30.25846,
      "lon": 50.51081,
      "level": 2,
      "date": "21/03/2022",
      "title": "Railway between Irpin and Kyiv destroyed",
      "media_url": "https://twitter.com/michaelh992/status/1505880237019734026"
    },
    {
      "lat": 32.017311,
      "lon": 46.973367,
      "level": 2,
      "date": "21/03/2022",
      "title": "Mental Health Center reportedly hit in a strike. Large crater, approx 5m diameter, visible."
    },
    {
      "lat": 30.250999,
      "lon": 50.495557,
      "level": 2,
      "date": "21/03/2022",
      "title": "Impact of shell in Irpin",
      "media_url": "https://twitter.com/no_itsmyturn/status/1505795496614535170"
    },
    {
      "lat": 31.375828,
      "lon": 51.524639,
      "level": 1,
      "date": "21/03/2022",
      "title": "Impact craters and destroyed homes seen on satellite imagery in Chernihiv",
      "media_url": "https://twitter.com/Cen4infoRes/status/1506210153032527877"
    },
    {
      "lat": 37.634005,
      "lon": 47.098735,
      "level": 2,
      "date": "21/03/2022",
      "title": "Drone footage of widespread destruction to a residential area.",
      "media_url": "https://twitter.com/SputnikATO/status/1506585665840033808"
    },
    {
      "lat": 36.240478,
      "lon": 50.006495,
      "level": 2,
      "date": "21/03/2022",
      "title": "Destruction in the center of Kharkiv",
      "media_url": "https://twitter.com/no_itsmyturn/status/1505872207024693248"
    },
    {
      "lat": 37.636263,
      "lon": 47.107878,
      "level": 2,
      "date": "21/03/2022",
      "title": "Damage to residential buildings in Mariupol",
      "media_url": "https://twitter.com/zcjbrooker/status/1505891373358239747"
    },
    {
      "lat": 30.413563,
      "lon": 50.503138,
      "level": 2,
      "date": "21/03/2022",
      "title": "Big shopping mall completely destroyed in Kyiv"
    },
    {
      "lat": 30.420247,
      "lon": 50.501869,
      "level": 2,
      "date": "21/03/2022",
      "title": "Big shopping mall completely destroyed in Kyiv"
    },
    {
      "lat": 30.417711,
      "lon": 50.502639,
      "level": 1,
      "date": "21/03/2022",
      "title": "Aftermath of strike on mall",
      "media_url": "https://twitter.com/ronzheimer/status/1505792748196184065"
    },
    {
      "lat": 30.417711,
      "lon": 50.502639,
      "level": 1,
      "date": "21/03/2022",
      "title": "Aftermath of strike on mall",
      "media_url": "https://twitter.com/TpyxaNews/status/1505802982495039488"
    },
    {
      "lat": 37.503247,
      "lon": 47.941205,
      "level": 2,
      "date": "21/03/2022",
      "title": "0:24-0:38 footage of widespread damage to residential and commercial buildings in different parts of the city."
    },
    {
      "lat": 30.416932,
      "lon": 50.502432,
      "level": 6,
      "date": "20/3/2022 ",
      "title": "he Retroville shopping mall hit by strike"
    },
    {
      "lat": 37.525459,
      "lon": 47.116191,
      "level": 6,
      "date": "20/3/2022 ",
      "title": "idespread civilian and residential infrastructure damage in Mariupol'. All photos are of the surrounding area."
    },
    {
      "lat": 37.562774,
      "lon": 47.110744,
      "level": 1,
      "date": "20/03/2022",
      "title": "damage to residential building",
      "media_url": "https://twitter.com/no_itsmyturn/status/1505485485724119041"
    },
    {
      "lat": 37.524615,
      "lon": 47.1175,
      "level": 2,
      "date": "20/03/2022",
      "title": "Widespread destruction in residential area.",
      "media_url": "https://twitter.com/TWMCLtd/status/1505593463953317896"
    },
    {
      "lat": 30.263872,
      "lon": 50.528581,
      "level": 1,
      "date": "20/03/2022",
      "title": "Video showing fire at Irpin Bible Seminary after shelling",
      "media_url": "https://twitter.com/TpyxaNews/status/1505512540364849152"
    },
    {
      "lat": 36.980466,
      "lon": 49.882204,
      "level": 1,
      "date": "20/03/2022",
      "title": "Video 1: Partial destruction of dam/bridge"
    },
    {
      "lat": 30.417711,
      "lon": 50.502639,
      "level": 1,
      "date": "20/03/2022",
      "title": "Very large detonation in Kyiv, appearing to hit the Retroville shopping mall. CCTV videos show small flash before larger detonation."
    },
    {
      "lat": 30.417711,
      "lon": 50.502639,
      "level": 1,
      "date": "20/03/2022",
      "title": "Very large detonation in Kyiv, appearing to hit the Retroville shopping mall. CCTV videos show small flash before larger detonation."
    },
    {
      "lat": 30.417711,
      "lon": 50.502639,
      "level": 1,
      "date": "20/03/2022",
      "title": "Very large detonation in Kyiv, appearing to hit the Retroville shopping mall. CCTV videos show small flash before larger detonation.",
      "media_url": "https://twitter.com/ukrpravda_news/status/1505657381316927494"
    },
    {
      "lat": 30.417711,
      "lon": 50.502639,
      "level": 1,
      "date": "20/03/2022",
      "title": "Very large detonation in Kyiv, appearing to hit the Retroville shopping mall. CCTV videos show small flash before larger detonation."
    },
    {
      "lat": 30.417711,
      "lon": 50.502639,
      "level": 1,
      "date": "20/03/2022",
      "title": "Very large detonation in Kyiv, appearing to hit the Retroville shopping mall. CCTV videos show small flash before larger detonation."
    },
    {
      "lat": 30.417711,
      "lon": 50.502639,
      "level": 1,
      "date": "20/03/2022",
      "title": "Very large detonation in Kyiv, appearing to hit the Retroville shopping mall. CCTV videos show small flash before larger detonation."
    },
    {
      "lat": 30.417711,
      "lon": 50.502639,
      "level": 1,
      "date": "20/03/2022",
      "title": "Very large detonation in Kyiv, appearing to hit the Retroville shopping mall. CCTV videos show small flash before larger detonation."
    },
    {
      "lat": 30.417711,
      "lon": 50.502639,
      "level": 2,
      "date": "20/03/2022",
      "title": "Very large detonation in Kyiv, appearing to hit the Retroville shopping mall. CCTV videos show small flash before larger detonation."
    },
    {
      "lat": 30.417711,
      "lon": 50.502639,
      "level": 2,
      "date": "20/03/2022",
      "title": "Very large detonation in Kyiv, appearing to hit the Retroville shopping mall. CCTV videos show small flash before larger detonation."
    },
    {
      "lat": 30.417711,
      "lon": 50.502639,
      "level": 2,
      "date": "20/03/2022",
      "title": "Very large detonation in Kyiv, appearing to hit the Retroville shopping mall. CCTV videos show small flash before larger detonation.",
      "media_url": "https://twitter.com/TpyxaNews/status/1505678525612888071"
    },
    {
      "lat": 30.196286,
      "lon": 50.548788,
      "level": 1,
      "date": "20/03/2022",
      "title": "Shopping mall destroyed",
      "media_url": "https://twitter.com/no_itsmyturn/status/1505583516079296514"
    },
    {
      "lat": 30.417364,
      "lon": 50.502625,
      "level": 2,
      "date": "20/03/2022",
      "title": "Reported Iskander ballistic missile strike on a mall in Podil's'kyi district of Kyiv, Ukraine"
    },
    {
      "lat": 37.561733,
      "lon": 47.109846,
      "level": 2,
      "date": "20/03/2022",
      "title": "Heavy damage to School №36 Mariupol",
      "media_url": "https://twitter.com/no_itsmyturn/status/1505483522072588290"
    },
    {
      "lat": 30.264125,
      "lon": 50.528373,
      "level": 2,
      "date": "20/03/2022",
      "title": "Destroyed/burning civilian infrastructure",
      "media_url": "https://twitter.com/olex_scherba/status/1505526534425174021"
    },
    {
      "lat": 29.705439,
      "lon": 50.423478,
      "level": 2,
      "date": "20/03/2022",
      "title": "Destroyed residential areas",
      "media_url": "https://twitter.com/zcjbrooker/status/1505247230864809987"
    },
    {
      "lat": 37.275338,
      "lon": 49.193878,
      "level": 2,
      "date": "20/03/2022",
      "title": "Destroyed Residential areas in Izyum",
      "media_url": "https://twitter.com/GirkinGirkin/status/1505445255553896451"
    },
    {
      "lat": 37.505067,
      "lon": 47.941437,
      "level": 2,
      "date": "20/03/2022",
      "title": "Destroyed Church in Maryinka",
      "media_url": "https://twitter.com/Liveuamap/status/1505228965035888652"
    },
    {
      "lat": 36.810143,
      "lon": 49.769158,
      "level": 1,
      "date": "20/03/2022",
      "title": "Damage to church",
      "media_url": "https://twitter.com/no_itsmyturn/status/1505422943626706948"
    },
    {
      "lat": 36.347414,
      "lon": 50.019941,
      "level": 1,
      "date": "20/03/2022",
      "title": "Damage to Ukrsibbank in Kharkiv",
      "media_url": "https://twitter.com/TpyxaNews/status/1505479053712793600"
    },
    {
      "lat": 30.414518,
      "lon": 50.502879,
      "level": 3,
      "date": "20/03/2022",
      "title": "Consequences of a missile attack on a shopping centre in Kyiv"
    },
    {
      "lat": 30.228448,
      "lon": 50.528451,
      "level": 1,
      "date": "19/03/2022",
      "title": "damaged building",
      "media_url": "https://twitter.com/no_itsmyturn/status/1505092326493990919"
    },
    {
      "lat": 29.815942,
      "lon": 50.459932,
      "level": 1,
      "date": "19/03/2022",
      "title": "damaged and on fire residential buildings",
      "media_url": "https://twitter.com/Osinttechnical/status/1504959462746038274"
    },
    {
      "lat": 37.302218,
      "lon": 47.74891,
      "level": 1,
      "date": "19/03/2022",
      "title": "Wedespread damage to Nikolo-Vasilyevsky Monastery"
    },
    {
      "lat": 37.530612,
      "lon": 47.106849,
      "level": 2,
      "date": "19/03/2022",
      "title": "Ukrainian troops in heavy clashes with Russian forces",
      "media_url": "https://twitter.com/CasusBellii/status/1505550084007682051"
    },
    {
      "lat": 37.509333,
      "lon": 47.118108,
      "level": 3,
      "date": "19/03/2022",
      "title": "Severe damage to residential buildings in Mariupol",
      "media_url": "https://twitter.com/michaelh992/status/1505196054555287554"
    },
    {
      "lat": 37.508224,
      "lon": 47.116487,
      "level": 3,
      "date": "19/03/2022",
      "title": "Severe damage to commercial and residential buildings in Maripol",
      "media_url": "https://twitter.com/oldLentach/status/1505205857990103040"
    },
    {
      "lat": 37.276006,
      "lon": 49.19686,
      "level": 1,
      "date": "19/03/2022",
      "title": "Partial destruction of school Nr. 1"
    },
    {
      "lat": 31.257546,
      "lon": 51.469581,
      "level": 2,
      "date": "19/03/2022",
      "title": "Large fire in Chernihiv industrial district reportedly after shelling.",
      "media_url": "https://twitter.com/ChaudharyParvez/status/1505236369433632782"
    },
    {
      "lat": 31.257546,
      "lon": 51.469581,
      "level": 1,
      "date": "19/03/2022",
      "title": "Large fire in Chernihiv industrial district reportedly after shelling.",
      "media_url": "https://twitter.com/wammezz/status/1505517360567959552"
    },
    {
      "lat": 37.523456,
      "lon": 47.097083,
      "level": 2,
      "date": "19/03/2022",
      "title": "Image 5: damaged buildings in Mariupol"
    },
    {
      "lat": 29.812947,
      "lon": 50.460724,
      "level": 1,
      "date": "19/03/2022",
      "title": "Image 3: Damage to townhall after strike"
    },
    {
      "lat": 29.811901,
      "lon": 50.461874,
      "level": 1,
      "date": "19/03/2022",
      "title": "Image 2: destroyed shop after strike"
    },
    {
      "lat": 29.811454,
      "lon": 50.46194,
      "level": 2,
      "date": "19/03/2022",
      "title": "Destroyed residential areas  in Kharkiv",
      "media_url": "https://twitter.com/zcjbrooker/status/1505209479184453634"
    },
    {
      "lat": 37.545676,
      "lon": 47.099016,
      "level": 2,
      "date": "19/03/2022",
      "title": "Destroyed residential areas",
      "media_url": "https://twitter.com/RALee85/status/1505191579975401474"
    },
    {
      "lat": 37.514279,
      "lon": 47.121509,
      "level": 1,
      "date": "19/03/2022",
      "title": "Destroyed residential area and cars",
      "media_url": "https://twitter.com/TWMCLtd/status/1505145206106112002"
    },
    {
      "lat": 30.295944,
      "lon": 50.440602,
      "level": 1,
      "date": "19/03/2022",
      "title": "Destroyed office of IQOS company"
    },
    {
      "lat": 37.511999,
      "lon": 47.11554,
      "level": 1,
      "date": "19/03/2022",
      "title": "Damaged residential buildings at 77 and 75 Kuprina st in Mariupol"
    },
    {
      "lat": 37.639389,
      "lon": 47.098217,
      "level": 2,
      "date": "19/03/2022",
      "title": "Damaged residential building at 44 Morskoy bld in Mariupol"
    },
    {
      "lat": 36.294424,
      "lon": 50.003724,
      "level": 1,
      "date": "19/03/2022",
      "title": "Damage to surrouding houses after strike on Barabashovo market"
    },
    {
      "lat": 36.235923,
      "lon": 49.999199,
      "level": 2,
      "date": "19/03/2022",
      "title": "Damage to civilian building in Kharkiv",
      "media_url": "https://twitter.com/NeilPHauer/status/1505142840757825536"
    },
    {
      "lat": 36.176383,
      "lon": 49.981556,
      "level": 2,
      "date": "19/03/2022",
      "title": "Damage on residential building in Kharkiv"
    },
    {
      "lat": 36.257372,
      "lon": 50.090628,
      "level": 1,
      "date": "19/03/2022",
      "title": "Damage after strike"
    },
    {
      "lat": 36.25606,
      "lon": 50.089299,
      "level": 1,
      "date": "19/03/2022",
      "title": "Damage after strike"
    },
    {
      "lat": 37.596512,
      "lon": 47.73365,
      "level": 3,
      "date": "19/03/2022",
      "title": "Attack on the the Novotroitske checkpoint"
    },
    {
      "lat": 37.651281,
      "lon": 47.097633,
      "level": 2,
      "date": "19/03/2022",
      "title": "Aftermath of shelling in Mariupol",
      "media_url": "https://twitter.com/me_marco/status/1505318002664906752"
    },
    {
      "lat": 37.589014,
      "lon": 47.104293,
      "level": 1,
      "date": "18/03/2022",
      "title": "explosions and fire in Azovstal metallurgical plant in Mariupol after shelling",
      "media_url": "https://twitter.com/BabakTaghvaee/status/1504872049898098696"
    },
    {
      "lat": 36.257399,
      "lon": 49.990335,
      "level": 1,
      "date": "18/03/2022",
      "title": "destroyed residential building in Kharkiv",
      "media_url": "https://twitter.com/karinanguyen_/status/1504777209269014529"
    },
    {
      "lat": 37.592071,
      "lon": 48.733006,
      "level": 1,
      "date": "18/03/2022",
      "title": "damged residential and administrative buildings",
      "media_url": "https://twitter.com/no_itsmyturn/status/1504736845573328896"
    },
    {
      "lat": 37.511014,
      "lon": 47.112302,
      "level": 1,
      "date": "18/03/2022",
      "title": "damaged vehicles on side of road near hospital in Mariupol",
      "media_url": "https://twitter.com/MateuszSobiera3/status/1504858916013936645"
    },
    {
      "lat": 37.51134,
      "lon": 47.10623,
      "level": 1,
      "date": "18/03/2022",
      "title": "damage to residential buildings",
      "media_url": "https://twitter.com/fs0c131y/status/1504932968388829189"
    },
    {
      "lat": 37.55346,
      "lon": 47.11127,
      "level": 1,
      "date": "18/03/2022",
      "title": "damage to residential buildings",
      "media_url": "https://twitter.com/fs0c131y/status/1504934540002959361"
    },
    {
      "lat": 30.432381,
      "lon": 50.510266,
      "level": 2,
      "date": "18/03/2022",
      "title": "damage to a residential building in Kyiv",
      "media_url": "https://twitter.com/ronzheimer/status/1504777493496184834"
    },
    {
      "lat": 30.31944,
      "lon": 50.60192,
      "level": 1,
      "date": "18/03/2022",
      "title": "Wedespread damage to houses after shelling",
      "media_url": "https://twitter.com/fs0c131y/status/1504941070823706630"
    },
    {
      "lat": 37.539436,
      "lon": 47.097237,
      "level": 2,
      "date": "18/03/2022",
      "title": "Video showing the destruction in Mariupol"
    },
    {
      "lat": 37.625199,
      "lon": 47.156713,
      "level": 2,
      "date": "18/03/2022",
      "title": "Video showing damage in a Mariupol school and nearby area"
    },
    {
      "lat": 30.276828,
      "lon": 50.553296,
      "level": 1,
      "date": "18/03/2022",
      "title": "Supermarket on fire",
      "media_url": "https://twitter.com/fs0c131y/status/1504940070788345859"
    },
    {
      "lat": 34.862742,
      "lon": 50.878419,
      "level": 1,
      "date": "18/03/2022",
      "title": "Smoke coming from paint manufacturer after being struck"
    },
    {
      "lat": 30.432475,
      "lon": 50.509943,
      "level": 3,
      "date": "18/03/2022",
      "title": "Shelling of a neighbourhood where a school and residential buildings are located in the city of Kyiv"
    },
    {
      "lat": 37.545481,
      "lon": 47.09932,
      "level": 2,
      "date": "18/03/2022",
      "title": "Severe damage on residential building, city center, shopping area."
    },
    {
      "lat": 36.253507,
      "lon": 49.975933,
      "level": 2,
      "date": "18/03/2022",
      "title": "Russian shelling in Kharkiv",
      "media_url": "https://twitter.com/MarQs__/status/1504724168591433728"
    },
    {
      "lat": 37.523275,
      "lon": 47.111672,
      "level": 2,
      "date": "18/03/2022",
      "title": "Residential street showing Mariupol building damage"
    },
    {
      "lat": 37.606294,
      "lon": 47.150047,
      "level": 2,
      "date": "18/03/2022",
      "title": "Residental area in Mariupol showing building damage. Image 4 focus. Images 1-3 connected to entry 3021."
    },
    {
      "lat": 37.612669,
      "lon": 47.162275,
      "level": 2,
      "date": "18/03/2022",
      "title": "Residental area in Mariupol showing building damage. 1-3 images in these coordinates, image 4 refer to Entry 3089, different location believed."
    },
    {
      "lat": 30.432298,
      "lon": 50.510173,
      "level": 2,
      "date": "18/03/2022",
      "title": "Kyiv Mayor Volodymyr Klitschko arrived at the scene of the shelling of a residential area at Vynohradar."
    },
    {
      "lat": 31.27817,
      "lon": 51.5002,
      "level": 2,
      "date": "18/03/2022",
      "title": "Image 3: Damaged residential areas in Chernihiv",
      "media_url": "https://twitter.com/Mike_Eckel/status/1504924831392968708"
    },
    {
      "lat": 37.510137,
      "lon": 47.107756,
      "level": 2,
      "date": "18/03/2022",
      "title": "Image 2: Destruction of Residential areas in Mariupol",
      "media_url": "https://twitter.com/AnonOpsSE/status/1504932393953677316"
    },
    {
      "lat": 36.130326,
      "lon": 50.167621,
      "level": 1,
      "date": "18/03/2022",
      "title": "Image 1: Damage after strike"
    },
    {
      "lat": 36.25435,
      "lon": 49.99074,
      "level": 2,
      "date": "18/03/2022",
      "title": "Destruction of part of the Kharkiv National University"
    },
    {
      "lat": 37.566667,
      "lon": 48.733333,
      "level": 3,
      "date": "18/03/2022",
      "title": "Destruction of apartments",
      "media_url": "https://twitter.com/Liveuamap/status/1504738974195240970"
    },
    {
      "lat": 37.508764,
      "lon": 47.118154,
      "level": 2,
      "date": "18/03/2022",
      "title": "Destroyed residential building in Mariupol",
      "media_url": "https://twitter.com/me_marco/status/1504865048723918858"
    },
    {
      "lat": 30.318578,
      "lon": 50.602691,
      "level": 2,
      "date": "18/03/2022",
      "title": "Destroyed residential areas",
      "media_url": "https://twitter.com/trbrtc/status/1504912446821220355"
    },
    {
      "lat": 37.53927,
      "lon": 47.097283,
      "level": 2,
      "date": "18/03/2022",
      "title": "Destroyed resdential buildings in Mariupol",
      "media_url": "https://twitter.com/no_itsmyturn/status/1504716348731047938"
    },
    {
      "lat": 36.254168,
      "lon": 49.991061,
      "level": 2,
      "date": "18/03/2022",
      "title": "Description: \"In Kharkiv, the shelling damaged the building of a higher education institution and residential buildings, there are dead and injured.\""
    },
    {
      "lat": 37.516704,
      "lon": 47.111908,
      "level": 2,
      "date": "18/03/2022",
      "title": "Damaged shopping street in Mariupol",
      "media_url": "https://twitter.com/Yoav__Zehavi/status/1504781306529464322"
    },
    {
      "lat": 36.257148,
      "lon": 49.990019,
      "level": 2,
      "date": "18/03/2022",
      "title": "Damage to a residential building"
    },
    {
      "lat": 36.299841,
      "lon": 50.002759,
      "level": 2,
      "date": "18/03/2022",
      "title": "Damage to Barabasova market"
    },
    {
      "lat": 36.176938,
      "lon": 49.980543,
      "level": 2,
      "date": "18/03/2022",
      "title": "Damage of commercial buildings in Kharkiv"
    },